[{"name": "Ph\u00fa Qu\u1ed1c", "country": "VN", "population": 179480, "coordinates": {"lon": 104.01047, "lat": 10.28715}}, {"name": "Bayt al Faq\u012bh", "country": "YE", "population": 34204, "coordinates": {"lon": 43.32446, "lat": 14.51635}}, {"name": "Saint Lucia Estuary", "country": "ZA", "population": 1104, "coordinates": {"lon": 32.41181, "lat": -28.37622}}, {"name": "Colesberg", "country": "ZA", "population": 12423, "coordinates": {"lon": 25.09718, "lat": -30.71999}}, {"name": "Calvinia", "country": "ZA", "population": 8146, "coordinates": {"lon": 19.77601, "lat": -31.47069}}, {"name": "Mumbwa", "country": "ZM", "population": 19086, "coordinates": {"lon": 27.0619, "lat": -14.98293}}, {"name": "Livingstone", "country": "ZM", "population": 109203, "coordinates": {"lon": 25.85425, "lat": -17.84194}}, {"name": "Chama", "country": "ZM", "population": 4061, "coordinates": {"lon": 33.1521, "lat": -11.21303}}, {"name": "Pingwu County", "country": "CN", "population": 180000, "coordinates": {"lon": 104.52738, "lat": 32.40732}}, {"name": "Caracol\u00ed", "country": "CO", "population": 218406, "coordinates": {"lon": -74.75715, "lat": 6.4092}}, {"name": "La Sierpe", "country": "CU", "population": 231832, "coordinates": {"lon": -79.26832, "lat": 21.77241}}, {"name": "Mindelo", "country": "CV", "population": 85023, "coordinates": {"lon": -24.98042, "lat": 16.89014}}, {"name": "Diapaga", "country": "BF", "population": 15515, "coordinates": {"lon": 1.78838, "lat": 12.07305}}, {"name": "Boromo", "country": "BF", "population": 20193, "coordinates": {"lon": -2.93006, "lat": 11.74542}}, {"name": "Tupanciret\u00e3", "country": "BR", "population": 17488, "coordinates": {"lon": -53.83583, "lat": -29.08056}}, {"name": "Te\u00f3filo Otoni", "country": "BR", "population": 101170, "coordinates": {"lon": -41.50528, "lat": -17.8575}}, {"name": "S\u00e3o Mateus do Sul", "country": "BR", "population": 78621, "coordinates": {"lon": -50.38278, "lat": -25.87417}}, {"name": "S\u00e3o Louren\u00e7o do Oeste", "country": "BR", "population": 213236, "coordinates": {"lon": -52.85111, "lat": -26.35917}}, {"name": "Presidente Epit\u00e1cio", "country": "BR", "population": 38742, "coordinates": {"lon": -52.11556, "lat": -21.76333}}, {"name": "Poxor\u00e9o", "country": "BR", "population": 12475, "coordinates": {"lon": -54.38917, "lat": -15.83722}}, {"name": "Gandu", "country": "BR", "population": 21565, "coordinates": {"lon": -39.48667, "lat": -13.74389}}, {"name": "Encruzilhada", "country": "BR", "population": 4711, "coordinates": {"lon": -40.90944, "lat": -15.53139}}, {"name": "Coruripe", "country": "BR", "population": 31427, "coordinates": {"lon": -36.17556, "lat": -10.12556}}, {"name": "Cl\u00e1udio", "country": "BR", "population": 517468, "coordinates": {"lon": -44.76583, "lat": -20.44333}}, {"name": "Caetit\u00e9", "country": "BR", "population": 93155, "coordinates": {"lon": -42.475, "lat": -14.06944}}, {"name": "Bataipor\u00e3", "country": "BR", "population": 7346, "coordinates": {"lon": -53.27111, "lat": -22.29528}}, {"name": "Alvorada", "country": "BR", "population": 10232, "coordinates": {"lon": -49.12472, "lat": -12.48}}, {"name": "Anori", "country": "BR", "population": 8064, "coordinates": {"lon": -61.64417, "lat": -3.77278}}, {"name": "Panbang", "country": "BT", "population": 1360, "coordinates": {"lon": 90.98333, "lat": 26.86667}}, {"name": "Damachava", "country": "BY", "population": 1200, "coordinates": {"lon": 23.6, "lat": 51.75}}, {"name": "Chetwynd", "country": "CA", "population": 2587, "coordinates": {"lon": -121.63627, "lat": 55.69988}}, {"name": "Cobourg", "country": "CA", "population": 18099, "coordinates": {"lon": -78.16515, "lat": 43.95977}}, {"name": "Gimli", "country": "CA", "population": 2246, "coordinates": {"lon": -96.99066, "lat": 50.63362}}, {"name": "Hinton", "country": "CA", "population": 9889, "coordinates": {"lon": -117.58567, "lat": 53.40009}}, {"name": "Invermere", "country": "CA", "population": 3391, "coordinates": {"lon": -116.03538, "lat": 50.51666}}, {"name": "Pont Rouge", "country": "CA", "population": 24249, "coordinates": {"lon": -72.08247, "lat": 48.88332}}, {"name": "Timmins", "country": "CA", "population": 41788, "coordinates": {"lon": -81.33312, "lat": 48.46686}}, {"name": "Wainwright", "country": "CA", "population": 6270, "coordinates": {"lon": -110.85342, "lat": 52.83482}}, {"name": "Whistler", "country": "CA", "population": 8713, "coordinates": {"lon": -122.95396, "lat": 50.11817}}, {"name": "Montmagny", "country": "CA", "population": 11724, "coordinates": {"lon": -70.55493, "lat": 46.98043}}, {"name": "Trinity Bay North", "country": "CA", "population": 1649, "coordinates": {"lon": -53.0713, "lat": 48.5221}}, {"name": "Impfondo", "country": "CG", "population": 20859, "coordinates": {"lon": 18.05981, "lat": 1.61804}}, {"name": "Martigny-Ville", "country": "CH", "population": 220504, "coordinates": {"lon": 7.07245, "lat": 46.10276}}, {"name": "Barbacha", "country": "DZ", "population": 354068, "coordinates": {"lon": 4.96667, "lat": 36.56667}}, {"name": "\u2019A\u00efn el Melh", "country": "DZ", "population": 39798, "coordinates": {"lon": 4.16383, "lat": 34.84146}}, {"name": "Djebilet Rosfa", "country": "DZ", "population": 315818, "coordinates": {"lon": 0.83496, "lat": 34.86375}}, {"name": "Ventanas", "country": "EC", "population": 205391, "coordinates": {"lon": -79.45943, "lat": -1.44158}}, {"name": "Palora", "country": "EC", "population": 6472, "coordinates": {"lon": -77.96516, "lat": -1.70131}}, {"name": "S\u012bd\u012b Bar\u0101n\u012b", "country": "EG", "population": 24271, "coordinates": {"lon": 25.92539, "lat": 31.61166}}, {"name": "Aswan", "country": "EG", "population": 379774, "coordinates": {"lon": 32.89942, "lat": 24.09082}}, {"name": "Al Kh\u0101rjah", "country": "EG", "population": 67700, "coordinates": {"lon": 30.54653, "lat": 25.45101}}, {"name": "Valverde", "country": "ES", "population": 5000, "coordinates": {"lon": -17.91578, "lat": 27.80628}}, {"name": "Galende", "country": "ES", "population": 5197, "coordinates": {"lon": -6.66252, "lat": 42.1044}}, {"name": "T\u0113p\u012b", "country": "ET", "population": 24169, "coordinates": {"lon": 35.45, "lat": 7.2}}, {"name": "Mek'ele", "country": "ET", "population": 436910, "coordinates": {"lon": 39.47528, "lat": 13.49667}}, {"name": "G\u0113do", "country": "ET", "population": 7499, "coordinates": {"lon": 37.45, "lat": 9.01667}}, {"name": "Bed\u0113sa", "country": "ET", "population": 88073, "coordinates": {"lon": 40.78333, "lat": 8.9}}, {"name": "Zu\u00e9noula", "country": "CI", "population": 34435, "coordinates": {"lon": -6.05054, "lat": 7.43027}}, {"name": "Sassandra", "country": "CI", "population": 87945, "coordinates": {"lon": -6.08531, "lat": 4.95384}}, {"name": "Abengourou", "country": "CI", "population": 164424, "coordinates": {"lon": -3.49639, "lat": 6.72972}}, {"name": "Vilc\u00fan", "country": "CL", "population": 290505, "coordinates": {"lon": -72.22565, "lat": -38.66875}}, {"name": "Puerto Williams", "country": "CL", "population": 1868, "coordinates": {"lon": -67.60963, "lat": -54.93355}}, {"name": "Puerto Cisnes", "country": "CL", "population": 2507, "coordinates": {"lon": -72.69695, "lat": -44.74736}}, {"name": "Hospital", "country": "CL", "population": 488044, "coordinates": {"lon": -70.13869, "lat": -20.21361}}, {"name": "Yagoua", "country": "CM", "population": 80235, "coordinates": {"lon": 15.23288, "lat": 10.34107}}, {"name": "Rey Bouba", "country": "CM", "population": 11454, "coordinates": {"lon": 14.1786, "lat": 8.6724}}, {"name": "B\u00e9tar\u00e9 Oya", "country": "CM", "population": 11866, "coordinates": {"lon": 14.08333, "lat": 5.6}}, {"name": "Altay", "country": "CN", "population": 190064, "coordinates": {"lon": 88.13361, "lat": 47.84864}}, {"name": "Yulinshi", "country": "CN", "population": 90870, "coordinates": {"lon": 109.73753, "lat": 38.29181}}, {"name": "Yuanping", "country": "CN", "population": 82883, "coordinates": {"lon": 112.7575, "lat": 38.71528}}, {"name": "Yinliu", "country": "CN", "population": 97626, "coordinates": {"lon": 117.39639, "lat": 39.9825}}, {"name": "Xujiang", "country": "CN", "population": 87459, "coordinates": {"lon": 116.32011, "lat": 26.83945}}, {"name": "Wacheng Neighborhood", "country": "CN", "population": 66848, "coordinates": {"lon": 114.51667, "lat": 33.78333}}, {"name": "Mingguang", "country": "CN", "population": 68351, "coordinates": {"lon": 117.96378, "lat": 32.78017}}, {"name": "Lianyuan", "country": "CN", "population": 257133, "coordinates": {"lon": 111.66417, "lat": 27.68833}}, {"name": "Dengzhou", "country": "CN", "population": 85279, "coordinates": {"lon": 120.75908, "lat": 37.80822}}, {"name": "Langzhong", "country": "CN", "population": 60542, "coordinates": {"lon": 105.99381, "lat": 31.55037}}, {"name": "Xinglongshan", "country": "CN", "population": 342365, "coordinates": {"lon": 125.46611, "lat": 43.95611}}, {"name": "Tieli", "country": "CN", "population": 109636, "coordinates": {"lon": 128.04804, "lat": 46.97544}}, {"name": "Suiling", "country": "CN", "population": 57124, "coordinates": {"lon": 127.10769, "lat": 47.23489}}, {"name": "Hunchun", "country": "CN", "population": 77028, "coordinates": {"lon": 130.35806, "lat": 42.8675}}, {"name": "Beichengqu", "country": "CN", "population": 72444, "coordinates": {"lon": 113.15361, "lat": 40.43944}}, {"name": "Wulguru", "country": "AU", "population": 353856, "coordinates": {"lon": 146.81842, "lat": -19.3285}}, {"name": "Roebuck", "country": "AU", "population": 1363, "coordinates": {"lon": 122.50116, "lat": -18.1713}}, {"name": "Romaine", "country": "AU", "population": 53518, "coordinates": {"lon": 145.89376, "lat": -41.09944}}, {"name": "Ecker\u00f6", "country": "AX", "population": 24351, "coordinates": {"lon": 19.61442, "lat": 60.21249}}, {"name": "Niedercunnersdorf", "country": "DE", "population": 489160, "coordinates": {"lon": 14.6583, "lat": 51.05398}}, {"name": "List", "country": "DE", "population": 63927, "coordinates": {"lon": 8.43132, "lat": 55.01917}}, {"name": "Gottfrieding", "country": "DE", "population": 183645, "coordinates": {"lon": 12.53561, "lat": 48.63737}}, {"name": "Fischbachau", "country": "DE", "population": 198409, "coordinates": {"lon": 11.95081, "lat": 47.71952}}, {"name": "R\u016bdb\u0101r", "country": "AF", "population": 11034, "coordinates": {"lon": 62.6, "lat": 30.15}}, {"name": "Qar\u0101wul", "country": "AF", "population": 24544, "coordinates": {"lon": 68.7802, "lat": 37.21959}}, {"name": "Qarah B\u0101gh", "country": "AF", "population": 12412, "coordinates": {"lon": 61.77589, "lat": 34.94023}}, {"name": "Lashkar G\u0101h", "country": "AF", "population": 101101, "coordinates": {"lon": 64.37161, "lat": 31.59382}}, {"name": "Kh\u014dst", "country": "AF", "population": 96123, "coordinates": {"lon": 69.92041, "lat": 33.33951}}, {"name": "L\u00e9ua", "country": "AO", "population": 5168, "coordinates": {"lon": 20.44772, "lat": -11.65753}}, {"name": "Mbanza Kongo", "country": "AO", "population": 24220, "coordinates": {"lon": 14.23833, "lat": -6.26667}}, {"name": "Curuz\u00fa Cuati\u00e1", "country": "AR", "population": 110978, "coordinates": {"lon": -58.0546, "lat": -29.79171}}, {"name": "Cruz de los Milagros", "country": "AR", "population": 98778, "coordinates": {"lon": -59.00476, "lat": -28.83646}}, {"name": "Victorica", "country": "AR", "population": 6565, "coordinates": {"lon": -65.43709, "lat": -36.21654}}, {"name": "Taf\u00ed del Valle", "country": "AR", "population": 4028, "coordinates": {"lon": -65.70983, "lat": -26.85275}}, {"name": "Sebasti\u00e1n Elcano", "country": "AR", "population": 2042, "coordinates": {"lon": -63.5936, "lat": -30.16105}}, {"name": "R\u00edo Pico", "country": "AR", "population": 1386, "coordinates": {"lon": -71.36847, "lat": -44.17905}}, {"name": "Recreo", "country": "AR", "population": 14204, "coordinates": {"lon": -65.06096, "lat": -29.28184}}, {"name": "Puerto Madryn", "country": "AR", "population": 64555, "coordinates": {"lon": -65.03827, "lat": -42.76848}}, {"name": "Nenzing", "country": "AT", "population": 152649, "coordinates": {"lon": 9.70539, "lat": 47.18436}}, {"name": "Lutzmannsburg", "country": "AT", "population": 94332, "coordinates": {"lon": 16.63665, "lat": 47.46373}}, {"name": "H\u00f6rbranz", "country": "AT", "population": 228563, "coordinates": {"lon": 9.75, "lat": 47.55}}, {"name": "Margaret River", "country": "AU", "population": 64487, "coordinates": {"lon": 115.07599, "lat": -33.95504}}, {"name": "Queenstown", "country": "AU", "population": 1800, "coordinates": {"lon": 145.55646, "lat": -42.0805}}, {"name": "Braidwood", "country": "AU", "population": 27422, "coordinates": {"lon": 149.7998, "lat": -35.44148}}, {"name": "Boyne Island", "country": "AU", "population": 79311, "coordinates": {"lon": 151.35336, "lat": -23.94829}}, {"name": "Bowen", "country": "AU", "population": 11417, "coordinates": {"lon": 148.24754, "lat": -20.01367}}, {"name": "Weno", "country": "FM", "population": 13856, "coordinates": {"lon": 151.84135, "lat": 7.44648}}, {"name": "Wasp\u00e1n", "country": "NI", "population": 6403, "coordinates": {"lon": -83.9717, "lat": 14.74189}}, {"name": "Waslala", "country": "NI", "population": 6498, "coordinates": {"lon": -85.38333, "lat": 13.23333}}, {"name": "Blitterswijck", "country": "NL", "population": 292413, "coordinates": {"lon": 6.10833, "lat": 51.53083}}, {"name": "Varhaug", "country": "NO", "population": 37168, "coordinates": {"lon": 5.65702, "lat": 58.6181}}, {"name": "Flor\u00f8", "country": "NO", "population": 51226, "coordinates": {"lon": 5.0328, "lat": 61.59957}}, {"name": "Br\u00f8nn\u00f8ysund", "country": "NO", "population": 5045, "coordinates": {"lon": 12.21285, "lat": 65.47487}}, {"name": "Berk\u00e5k", "country": "NO", "population": 914, "coordinates": {"lon": 10.01177, "lat": 62.82496}}, {"name": "\u00c5 i \u00c5fjord", "country": "NO", "population": 4124, "coordinates": {"lon": 10.22468, "lat": 63.96068}}, {"name": "Hetauda", "country": "NP", "population": 195951, "coordinates": {"lon": 85.03219, "lat": 27.42839}}, {"name": "Besisahar", "country": "NP", "population": 5427, "coordinates": {"lon": 84.3775, "lat": 28.23111}}, {"name": "Murupara", "country": "NZ", "population": 1876, "coordinates": {"lon": 176.7, "lat": -38.46667}}, {"name": "Invercargill", "country": "NZ", "population": 82051, "coordinates": {"lon": 168.35, "lat": -46.4}}, {"name": "Moana", "country": "NZ", "population": 127484, "coordinates": {"lon": 173.25427, "lat": -41.27981}}, {"name": "Mar\u00eda Chiquita", "country": "PA", "population": 351527, "coordinates": {"lon": -79.75301, "lat": 9.44289}}, {"name": "Pilpichaca", "country": "PE", "population": 260883, "coordinates": {"lon": -75.00178, "lat": -13.32795}}, {"name": "Oyolo", "country": "PE", "population": 2060, "coordinates": {"lon": -73.18808, "lat": -15.1798}}, {"name": "Mazuko", "country": "PE", "population": 3586, "coordinates": {"lon": -70.36736, "lat": -13.10012}}, {"name": "La Paz", "country": "PH", "population": 2024, "coordinates": {"lon": 122.5162, "lat": 10.4131}}, {"name": "Binay", "country": "PH", "population": 94267, "coordinates": {"lon": 122.5983, "lat": 13.5019}}, {"name": "Algeciras", "country": "PH", "population": 4007, "coordinates": {"lon": 120.8168, "lat": 11.4154}}, {"name": "Barra de Cazones", "country": "MX", "population": 381557, "coordinates": {"lon": -97.2032, "lat": 20.72307}}, {"name": "Paso Real de Sarabia", "country": "MX", "population": 67915, "coordinates": {"lon": -95.04667, "lat": 17.07389}}, {"name": "Xmab\u00e9n", "country": "MX", "population": 9871, "coordinates": {"lon": -89.31426, "lat": 19.2353}}, {"name": "Ejido Benito Ju\u00e1rez", "country": "MX", "population": 5778, "coordinates": {"lon": -106.88362, "lat": 30.14937}}, {"name": "Santa Rosal\u00eda", "country": "MX", "population": 11765, "coordinates": {"lon": -112.26706, "lat": 27.34035}}, {"name": "Santa Elena", "country": "MX", "population": 82146, "coordinates": {"lon": -102.07141, "lat": 22.5924}}, {"name": "Las Bocas", "country": "MX", "population": 66485, "coordinates": {"lon": -109.33622, "lat": 26.58821}}, {"name": "Jim\u00e9nez del Teul", "country": "MX", "population": 1662, "coordinates": {"lon": -103.79855, "lat": 23.25378}}, {"name": "Cuatro Ci\u00e9negas de Carranza", "country": "MX", "population": 10309, "coordinates": {"lon": -102.06386, "lat": 26.98542}}, {"name": "Cedro de la Manzana", "country": "MX", "population": 439115, "coordinates": {"lon": -100.11656, "lat": 19.69213}}, {"name": "Granadillas (La Colonia)", "country": "MX", "population": 313959, "coordinates": {"lon": -101.90139, "lat": 21.37972}}, {"name": "Tanah Rata", "country": "MY", "population": 7000, "coordinates": {"lon": 101.3763, "lat": 4.46361}}, {"name": "Pantai Remis", "country": "MY", "population": 16317, "coordinates": {"lon": 100.6288, "lat": 4.4557}}, {"name": "Grootfontein", "country": "NA", "population": 24099, "coordinates": {"lon": 18.11667, "lat": -19.56667}}, {"name": "Bormida-Genepro", "country": "IT", "population": 196130, "coordinates": {"lon": 8.19952, "lat": 44.39051}}, {"name": "Uken", "country": "JP", "population": 49200, "coordinates": {"lon": 129.23333, "lat": 28.3}}, {"name": "Ama", "country": "JP", "population": 2293, "coordinates": {"lon": 133.09159, "lat": 36.09317}}, {"name": "Fukaura", "country": "JP", "population": 7903, "coordinates": {"lon": 139.93202, "lat": 40.64131}}, {"name": "Kazarman", "country": "KG", "population": 11191, "coordinates": {"lon": 74.02828, "lat": 41.40452}}, {"name": "Suong", "country": "KH", "population": 30000, "coordinates": {"lon": 105.65821, "lat": 11.91178}}, {"name": "Paoy Paet", "country": "KH", "population": 79000, "coordinates": {"lon": 102.56365, "lat": 13.65805}}, {"name": "Banlung", "country": "KH", "population": 17000, "coordinates": {"lon": 106.98727, "lat": 13.73939}}, {"name": "Y\u014fnan-\u016dp", "country": "KP", "population": 22665, "coordinates": {"lon": 126.16111, "lat": 37.90889}}, {"name": "Kosong", "country": "KR", "population": 62446, "coordinates": {"lon": 128.4676, "lat": 38.37881}}, {"name": "Miyaly", "country": "KZ", "population": 6213, "coordinates": {"lon": 53.79168, "lat": 48.88548}}, {"name": "Maloye Ganyushkino", "country": "KZ", "population": 8387, "coordinates": {"lon": 49.26667, "lat": 46.6}}, {"name": "Shyngyrlau", "country": "KZ", "population": 6218, "coordinates": {"lon": 54.08412, "lat": 51.09959}}, {"name": "Bautino", "country": "KZ", "population": 3247, "coordinates": {"lon": 50.24629, "lat": 44.54479}}, {"name": "Umirzak", "country": "KZ", "population": 1885, "coordinates": {"lon": 51.24094, "lat": 43.59762}}, {"name": "Urzhar", "country": "KZ", "population": 14826, "coordinates": {"lon": 81.62939, "lat": 47.09302}}, {"name": "Talshik", "country": "KZ", "population": 3111, "coordinates": {"lon": 71.87404, "lat": 53.63736}}, {"name": "Nura", "country": "KZ", "population": 7037, "coordinates": {"lon": 71.54802, "lat": 50.26159}}, {"name": "Muang Ph\u00f4nsavan", "country": "LA", "population": 37507, "coordinates": {"lon": 103.1917, "lat": 19.4494}}, {"name": "Trincomalee", "country": "LK", "population": 108420, "coordinates": {"lon": 81.2289, "lat": 8.5778}}, {"name": "Al Bard\u012byah", "country": "LY", "population": 9149, "coordinates": {"lon": 25.0853, "lat": 31.75601}}, {"name": "Sabh\u0101", "country": "LY", "population": 130000, "coordinates": {"lon": 14.42832, "lat": 27.03766}}, {"name": "Mizdah", "country": "LY", "population": 26107, "coordinates": {"lon": 12.9853, "lat": 31.44934}}, {"name": "Targuist", "country": "MA", "population": 11560, "coordinates": {"lon": -4.31856, "lat": 34.93769}}, {"name": "Oulmes", "country": "MA", "population": 19014, "coordinates": {"lon": -6.00137, "lat": 33.42585}}, {"name": "Ifrane", "country": "MA", "population": 13000, "coordinates": {"lon": -6.3494, "lat": 31.70217}}, {"name": "Andovoranto", "country": "MG", "population": 10429, "coordinates": {"lon": 49.1094, "lat": -18.95443}}, {"name": "Ambodifotatra", "country": "MG", "population": 11830, "coordinates": {"lon": 49.85, "lat": -16.98333}}, {"name": "Ambalasoa", "country": "MG", "population": 4000, "coordinates": {"lon": 46.0, "lat": -23.11667}}, {"name": "Kidal", "country": "ML", "population": 11643, "coordinates": {"lon": 1.40778, "lat": 18.44111}}, {"name": "Goundam", "country": "ML", "population": 8456, "coordinates": {"lon": -3.67075, "lat": 16.41453}}, {"name": "Tidjikja", "country": "MR", "population": 10906, "coordinates": {"lon": -11.42715, "lat": 18.55644}}, {"name": "Kiffa", "country": "MR", "population": 40281, "coordinates": {"lon": -11.40208, "lat": 16.62073}}, {"name": "Dhihdhoo", "country": "MV", "population": 3039, "coordinates": {"lon": 73.11402, "lat": 6.88744}}, {"name": "Roz-Landrieux", "country": "FR", "population": 675749, "coordinates": {"lon": -1.81558, "lat": 48.54326}}, {"name": "Rivi\u00e8re", "country": "FR", "population": 401152, "coordinates": {"lon": -1.15164, "lat": 43.67958}}, {"name": "Kernilis", "country": "FR", "population": 460126, "coordinates": {"lon": -4.41952, "lat": 48.57128}}, {"name": "Haveluy", "country": "FR", "population": 356267, "coordinates": {"lon": 3.40389, "lat": 50.35289}}, {"name": "\u00c9tival-Clairefontaine", "country": "FR", "population": 94258, "coordinates": {"lon": 6.86118, "lat": 48.36519}}, {"name": "Durrenbach", "country": "FR", "population": 185977, "coordinates": {"lon": 7.76769, "lat": 48.89681}}, {"name": "Mounana", "country": "GA", "population": 81898, "coordinates": {"lon": 13.15857, "lat": -1.4085}}, {"name": "Belmullet", "country": "IE", "population": 1019, "coordinates": {"lon": -9.99083, "lat": 54.225}}, {"name": "Metulla", "country": "IL", "population": 51243, "coordinates": {"lon": 35.5795, "lat": 33.27918}}, {"name": "Sabr\u016bm", "country": "IN", "population": 6205, "coordinates": {"lon": 91.72427, "lat": 23.00153}}, {"name": "Nirmal", "country": "IN", "population": 80982, "coordinates": {"lon": 78.34407, "lat": 19.09685}}, {"name": "Khowai", "country": "IN", "population": 54047, "coordinates": {"lon": 91.59972, "lat": 24.07964}}, {"name": "Katpur", "country": "IN", "population": 6981, "coordinates": {"lon": 71.79457, "lat": 21.05869}}, {"name": "Katghora", "country": "IN", "population": 20113, "coordinates": {"lon": 82.54279, "lat": 22.50247}}, {"name": "Hoj\u0101i", "country": "IN", "population": 117674, "coordinates": {"lon": 92.85605, "lat": 26.00281}}, {"name": "Hassan", "country": "IN", "population": 255414, "coordinates": {"lon": 76.0962, "lat": 13.00715}}, {"name": "Ghor\u0101wal", "country": "IN", "population": 7492, "coordinates": {"lon": 82.77965, "lat": 24.75459}}, {"name": "Dh\u0101rchula", "country": "IN", "population": 7331, "coordinates": {"lon": 80.51951, "lat": 29.84707}}, {"name": "Bh\u0101dra", "country": "IN", "population": 37629, "coordinates": {"lon": 75.17138, "lat": 29.10298}}, {"name": "Barhi", "country": "IN", "population": 12136, "coordinates": {"lon": 80.81516, "lat": 23.90326}}, {"name": "B\u0101lotra", "country": "IN", "population": 108102, "coordinates": {"lon": 72.24, "lat": 25.83242}}, {"name": "Bagasra", "country": "IN", "population": 248257, "coordinates": {"lon": 70.95516, "lat": 21.48719}}, {"name": "All\u0101palli", "country": "IN", "population": 10772, "coordinates": {"lon": 80.06377, "lat": 19.43172}}, {"name": "Mandal\u012b", "country": "IQ", "population": 29785, "coordinates": {"lon": 45.55503, "lat": 33.7481}}, {"name": "Zarand", "country": "IR", "population": 105653, "coordinates": {"lon": 56.56399, "lat": 30.81271}}, {"name": "S\u0101veh", "country": "IR", "population": 175533, "coordinates": {"lon": 50.3566, "lat": 35.0213}}, {"name": "R\u0101mhormoz", "country": "IR", "population": 38821, "coordinates": {"lon": 49.60351, "lat": 31.27997}}, {"name": "Marvdasht", "country": "IR", "population": 148858, "coordinates": {"lon": 52.8025, "lat": 29.8742}}, {"name": "Kh\u0101rk", "country": "IR", "population": 8196, "coordinates": {"lon": 50.33056, "lat": 29.26139}}, {"name": "B\u012brjand", "country": "IR", "population": 196982, "coordinates": {"lon": 59.22114, "lat": 32.86628}}, {"name": "Grindav\u00edk", "country": "IS", "population": 282199, "coordinates": {"lon": -22.43931, "lat": 63.83849}}, {"name": "San Giovanni A Piro", "country": "IT", "population": 77458, "coordinates": {"lon": 15.4462, "lat": 40.0515}}, {"name": "Pedavena", "country": "IT", "population": 118449, "coordinates": {"lon": 11.8831, "lat": 46.03951}}, {"name": "Mogliano Veneto", "country": "IT", "population": 412549, "coordinates": {"lon": 12.24294, "lat": 45.55594}}, {"name": "Linden", "country": "GY", "population": 44690, "coordinates": {"lon": -58.30714, "lat": 6.00809}}, {"name": "San Marcos de Col\u00f3n", "country": "HN", "population": 8821, "coordinates": {"lon": -86.8, "lat": 13.43333}}, {"name": "Opuzen", "country": "HR", "population": 81397, "coordinates": {"lon": 17.56556, "lat": 43.01528}}, {"name": "Sofifi", "country": "ID", "population": 36197, "coordinates": {"lon": 127.5588, "lat": 0.73729}}, {"name": "Polewali", "country": "ID", "population": 65800, "coordinates": {"lon": 119.3435, "lat": -3.4324}}, {"name": "Muntok", "country": "ID", "population": 26709, "coordinates": {"lon": 105.16228, "lat": -2.06719}}, {"name": "Dompu", "country": "ID", "population": 215127, "coordinates": {"lon": 118.4634, "lat": -8.5365}}, {"name": "Biak", "country": "ID", "population": 4537, "coordinates": {"lon": 136.082, "lat": -1.1767}}, {"name": "Baa", "country": "ID", "population": 1263, "coordinates": {"lon": 123.0492, "lat": -10.7263}}, {"name": "Aasiaat", "country": "GL", "population": 3005, "coordinates": {"lon": -52.86366, "lat": 68.70869}}, {"name": "Gaoual", "country": "GN", "population": 7461, "coordinates": {"lon": -13.2, "lat": 11.75}}, {"name": "Boffa", "country": "GN", "population": 2332, "coordinates": {"lon": -14.03333, "lat": 10.16667}}, {"name": "Garhi Khairo", "country": "PK", "population": 94912, "coordinates": {"lon": 67.98033, "lat": 28.06029}}, {"name": "Prioz\u00ebrsk", "country": "RU", "population": 31462, "coordinates": {"lon": 30.13915, "lat": 61.04027}}, {"name": "Novyye Burasy", "country": "RU", "population": 25393, "coordinates": {"lon": 46.07144, "lat": 52.13236}}, {"name": "Kuvandyk", "country": "RU", "population": 28706, "coordinates": {"lon": 57.3552, "lat": 51.4781}}, {"name": "Kukoboy", "country": "RU", "population": 24293, "coordinates": {"lon": 39.91427, "lat": 58.70089}}, {"name": "Kresttsy", "country": "RU", "population": 9737, "coordinates": {"lon": 32.51796, "lat": 58.24782}}, {"name": "Khomutovka", "country": "RU", "population": 21924, "coordinates": {"lon": 34.5619, "lat": 51.9207}}, {"name": "Dombarovskiy", "country": "RU", "population": 9556, "coordinates": {"lon": 59.5386, "lat": 50.7587}}, {"name": "Alakurtti", "country": "RU", "population": 6293, "coordinates": {"lon": 30.34905, "lat": 66.9672}}, {"name": "Tashanta", "country": "RU", "population": 2000, "coordinates": {"lon": 89.19425, "lat": 49.71573}}, {"name": "Mezhdurechensk", "country": "RU", "population": 154432, "coordinates": {"lon": 88.06028, "lat": 53.69417}}, {"name": "Irbeyskoye", "country": "RU", "population": 4681, "coordinates": {"lon": 95.4515, "lat": 55.6396}}, {"name": "Chany", "country": "RU", "population": 8923, "coordinates": {"lon": 76.76468, "lat": 55.31205}}, {"name": "Vidim", "country": "RU", "population": 1415, "coordinates": {"lon": 103.1106, "lat": 56.4088}}, {"name": "Poyarkovo", "country": "RU", "population": 7003, "coordinates": {"lon": 128.65352, "lat": 49.62678}}, {"name": "Lensk", "country": "RU", "population": 23694, "coordinates": {"lon": 114.92778, "lat": 60.72528}}, {"name": "Kazachinskoye", "country": "RU", "population": 2581, "coordinates": {"lon": 107.57624, "lat": 56.26974}}, {"name": "Istok", "country": "RU", "population": 3072, "coordinates": {"lon": 106.2475, "lat": 52.09528}}, {"name": "Gorin", "country": "RU", "population": 3695, "coordinates": {"lon": 136.66216, "lat": 51.19861}}, {"name": "Chernyshevskiy", "country": "RU", "population": 5137, "coordinates": {"lon": 112.46901, "lat": 63.01601}}, {"name": "Bukachacha", "country": "RU", "population": 19604, "coordinates": {"lon": 116.91667, "lat": 52.98333}}, {"name": "Amursk", "country": "RU", "population": 342431, "coordinates": {"lon": 136.88136, "lat": 50.23685}}, {"name": "Aldan", "country": "RU", "population": 34480, "coordinates": {"lon": 125.39613, "lat": 58.61021}}, {"name": "Ossora", "country": "RU", "population": 2420, "coordinates": {"lon": 163.07034, "lat": 59.24781}}, {"name": "Klyuchi", "country": "RU", "population": 10000, "coordinates": {"lon": 160.84541, "lat": 56.32035}}, {"name": "Cherskiy", "country": "RU", "population": 3707, "coordinates": {"lon": 161.33197, "lat": 68.75325}}, {"name": "Tsiolkovskiy", "country": "RU", "population": 6535, "coordinates": {"lon": 128.11472, "lat": 51.76694}}, {"name": "Wed Alnkil", "country": "SA", "population": 1500, "coordinates": {"lon": 42.8343, "lat": 25.4267}}, {"name": "Sabt Alalayah", "country": "SA", "population": 100000, "coordinates": {"lon": 41.96357, "lat": 19.5773}}, {"name": "Wad Medani", "country": "SD", "population": 400777, "coordinates": {"lon": 33.51989, "lat": 14.40118}}, {"name": "Kadugli", "country": "SD", "population": 87666, "coordinates": {"lon": 29.71833, "lat": 11.01111}}, {"name": "B\u0101rah", "country": "SD", "population": 16969, "coordinates": {"lon": 30.36667, "lat": 13.7}}, {"name": "Al \u1e28aw\u0101tah", "country": "SD", "population": 24513, "coordinates": {"lon": 34.63333, "lat": 13.41667}}, {"name": "Kiruna", "country": "SE", "population": 17037, "coordinates": {"lon": 20.22513, "lat": 67.85572}}, {"name": "H\u00f6l\u00f6", "country": "SE", "population": 138539, "coordinates": {"lon": 18.66667, "lat": 59.28333}}, {"name": "Kolda", "country": "SN", "population": 58809, "coordinates": {"lon": -14.94125, "lat": 12.8939}}, {"name": "Beledweyne", "country": "SO", "population": 55410, "coordinates": {"lon": 45.20361, "lat": 4.73583}}, {"name": "Bu\u015fr\u00e1 ash Sh\u0101m", "country": "SY", "population": 87678, "coordinates": {"lon": 36.48163, "lat": 32.5174}}, {"name": "\u0100lb\u016b Kam\u0101l", "country": "SY", "population": 57572, "coordinates": {"lon": 40.91854, "lat": 34.45226}}, {"name": "That Phanom", "country": "TH", "population": 14424, "coordinates": {"lon": 104.71039, "lat": 16.93636}}, {"name": "Refahiye", "country": "TR", "population": 266857, "coordinates": {"lon": 38.76607, "lat": 39.89315}}, {"name": "Gazipa\u015fa", "country": "TR", "population": 18371, "coordinates": {"lon": 32.31792, "lat": 36.26942}}, {"name": "Arpa\u00e7ay", "country": "TR", "population": 21299, "coordinates": {"lon": 43.32747, "lat": 40.84522}}, {"name": "Scarborough", "country": "TT", "population": 17000, "coordinates": {"lon": -60.73525, "lat": 11.18229}}, {"name": "Utete", "country": "TZ", "population": 59427, "coordinates": {"lon": 38.75795, "lat": -7.98598}}, {"name": "Seia", "country": "PT", "population": 84017, "coordinates": {"lon": -7.70859, "lat": 40.4151}}, {"name": "Gafanha da Encarna\u00e7\u00e3o", "country": "PT", "population": 251146, "coordinates": {"lon": -8.73303, "lat": 40.61806}}, {"name": "San Miguel", "country": "PY", "population": 33269, "coordinates": {"lon": -57.03928, "lat": -26.53599}}, {"name": "Capit\u00e1n Bado", "country": "PY", "population": 9114, "coordinates": {"lon": -55.53876, "lat": -23.26733}}, {"name": "Ayolas", "country": "PY", "population": 15749, "coordinates": {"lon": -56.83953, "lat": -27.38421}}, {"name": "Gura Padinii", "country": "RO", "population": 109798, "coordinates": {"lon": 24.31615, "lat": 43.75704}}, {"name": "G\u00e2rcov", "country": "RO", "population": 299546, "coordinates": {"lon": 24.61577, "lat": 43.7591}}, {"name": "Ciughe\u0219", "country": "RO", "population": 250650, "coordinates": {"lon": 26.1197, "lat": 46.5222}}, {"name": "Sremska Mitrovica", "country": "RS", "population": 191022, "coordinates": {"lon": 19.61222, "lat": 44.97639}}, {"name": "Cando", "country": "US", "population": 1122, "coordinates": {"lon": -99.20986, "lat": 48.48667}}, {"name": "Langdon", "country": "US", "population": 1787, "coordinates": {"lon": -98.36817, "lat": 48.76}}, {"name": "Quartzsite", "country": "US", "population": 25327, "coordinates": {"lon": -114.22995, "lat": 33.66391}}, {"name": "Del Monte Forest", "country": "US", "population": 281525, "coordinates": {"lon": -121.94746, "lat": 36.58635}}, {"name": "Searles Valley", "country": "US", "population": 1739, "coordinates": {"lon": -117.40395, "lat": 35.76745}}, {"name": "Montrose", "country": "US", "population": 36250, "coordinates": {"lon": -107.87617, "lat": 38.47832}}, {"name": "Las Vegas", "country": "US", "population": 28095, "coordinates": {"lon": -105.2239, "lat": 35.59393}}, {"name": "Caliente", "country": "US", "population": 1109, "coordinates": {"lon": -114.51194, "lat": 37.61496}}, {"name": "Milford", "country": "US", "population": 1331, "coordinates": {"lon": -113.01079, "lat": 38.39691}}, {"name": "Wrangell", "country": "US", "population": 2382, "coordinates": {"lon": -132.37667, "lat": 56.47083}}, {"name": "Ashton", "country": "US", "population": 5921, "coordinates": {"lon": -111.44829, "lat": 44.07158}}, {"name": "Lakeview", "country": "US", "population": 2296, "coordinates": {"lon": -120.34579, "lat": 42.18877}}, {"name": "Laramie", "country": "US", "population": 32158, "coordinates": {"lon": -105.5911, "lat": 41.31137}}, {"name": "M\u016dynoq", "country": "UZ", "population": 13500, "coordinates": {"lon": 59.02139, "lat": 43.76833}}, {"name": "Toshbuloq", "country": "UZ", "population": 167512, "coordinates": {"lon": 71.57819, "lat": 40.91617}}, {"name": "Yaguaraparo", "country": "VE", "population": 13610, "coordinates": {"lon": -62.82628, "lat": 10.56839}}, {"name": "Machiques", "country": "VE", "population": 89119, "coordinates": {"lon": -72.55212, "lat": 10.06077}}, {"name": "Elorza", "country": "VE", "population": 27795, "coordinates": {"lon": -69.49765, "lat": 7.06088}}, {"name": "Ciudad Bolivia", "country": "VE", "population": 52476, "coordinates": {"lon": -70.57121, "lat": 8.35304}}, {"name": "Chichiriviche", "country": "VE", "population": 134528, "coordinates": {"lon": -68.27283, "lat": 10.92872}}, {"name": "S\u01a1n La", "country": "VN", "population": 19054, "coordinates": {"lon": 103.91882, "lat": 21.3256}}, {"name": "Hu\u1ebf", "country": "VN", "population": 351456, "coordinates": {"lon": 107.59546, "lat": 16.4619}}, {"name": "C\u00e0 Mau", "country": "VN", "population": 111894, "coordinates": {"lon": 105.15242, "lat": 9.17682}}, {"name": "Kaniv", "country": "UA", "population": 23503, "coordinates": {"lon": 31.47003, "lat": 49.75187}}, {"name": "Adjumani", "country": "UG", "population": 28700, "coordinates": {"lon": 31.7909, "lat": 3.37786}}, {"name": "West Dundee", "country": "US", "population": 323277, "coordinates": {"lon": -88.28286, "lat": 42.09808}}, {"name": "Milbridge", "country": "US", "population": 22403, "coordinates": {"lon": -67.88083, "lat": 44.53536}}, {"name": "Ves\u2019yegonsk", "country": "RU", "population": 8200, "coordinates": {"lon": 37.26365, "lat": 58.66769}}, {"name": "Sulak", "country": "RU", "population": 6800, "coordinates": {"lon": 47.51463, "lat": 43.27342}}, {"name": "Sirari", "country": "TZ", "population": 24317, "coordinates": {"lon": 34.47596, "lat": -1.25367}}, {"name": "Malangali", "country": "TZ", "population": 7112, "coordinates": {"lon": 34.85, "lat": -8.56667}}, {"name": "Kibaya", "country": "TZ", "population": 5028, "coordinates": {"lon": 36.56667, "lat": -5.3}}, {"name": "Karema", "country": "TZ", "population": 12630, "coordinates": {"lon": 30.43887, "lat": -6.82052}}, {"name": "Bungu", "country": "TZ", "population": 27873, "coordinates": {"lon": 39.05818, "lat": -7.63369}}, {"name": "Kj\u00f8llefjord", "country": "NO", "population": 2630, "coordinates": {"lon": 27.3465, "lat": 70.94574}}, {"name": "Haumoana", "country": "NZ", "population": 209915, "coordinates": {"lon": 176.94571, "lat": -39.6037}}, {"name": "San Ram\u00f3n", "country": "PE", "population": 29000, "coordinates": {"lon": -75.35733, "lat": -11.12417}}, {"name": "Machupicchu", "country": "PE", "population": 30321, "coordinates": {"lon": -72.52416, "lat": -13.15549}}, {"name": "Islay (Matarani)", "country": "PE", "population": 48911, "coordinates": {"lon": -72.1011, "lat": -16.9961}}, {"name": "Paucartambo", "country": "PE", "population": 4438, "coordinates": {"lon": -75.81109, "lat": -10.77326}}, {"name": "Mount Hagen", "country": "PG", "population": 33623, "coordinates": {"lon": 144.23058, "lat": -5.85746}}, {"name": "Kokoda", "country": "PG", "population": 6199, "coordinates": {"lon": 147.73642, "lat": -8.87778}}, {"name": "Tubajon", "country": "PH", "population": 2906, "coordinates": {"lon": 125.56194, "lat": 10.33167}}, {"name": "Tabiauan", "country": "PH", "population": 2312, "coordinates": {"lon": 121.89355, "lat": 6.02806}}, {"name": "Polopina", "country": "PH", "population": 117885, "coordinates": {"lon": 123.1659, "lat": 11.2068}}, {"name": "Nueva Vida Sur", "country": "PH", "population": 200760, "coordinates": {"lon": 124.1745, "lat": 9.7846}}, {"name": "Maribong", "country": "PH", "population": 99589, "coordinates": {"lon": 122.53333, "lat": 11.1}}, {"name": "Kaliliog", "country": "PH", "population": 2738, "coordinates": {"lon": 123.2925, "lat": 13.9039}}, {"name": "Bagac", "country": "PH", "population": 447299, "coordinates": {"lon": 120.3928, "lat": 14.5962}}, {"name": "Staryye Ozinki", "country": "RU", "population": 9733, "coordinates": {"lon": 49.6769, "lat": 51.1786}}, {"name": "Neftegorsk", "country": "RU", "population": 28485, "coordinates": {"lon": 51.166, "lat": 52.802}}, {"name": "Kovdor", "country": "RU", "population": 19518, "coordinates": {"lon": 30.47576, "lat": 67.56616}}, {"name": "Ber\u00ebznik", "country": "RU", "population": 6218, "coordinates": {"lon": 42.7071, "lat": 62.852}}, {"name": "Vengerovo", "country": "RU", "population": 7073, "coordinates": {"lon": 76.74707, "lat": 55.68485}}, {"name": "Ust\u2019-Ishim", "country": "RU", "population": 4999, "coordinates": {"lon": 71.1665, "lat": 57.6935}}, {"name": "Inya", "country": "RU", "population": 2000, "coordinates": {"lon": 86.62667, "lat": 50.45611}}, {"name": "Igrim", "country": "RU", "population": 9545, "coordinates": {"lon": 64.4162, "lat": 63.1906}}, {"name": "Bor", "country": "RU", "population": 2300, "coordinates": {"lon": 90.01806, "lat": 61.60111}}, {"name": "Askiz", "country": "RU", "population": 17243, "coordinates": {"lon": 90.42833, "lat": 53.13722}}, {"name": "Gubkinskiy", "country": "RU", "population": 20463, "coordinates": {"lon": 76.50261, "lat": 64.434}}, {"name": "Zharikovo", "country": "RU", "population": 34227, "coordinates": {"lon": 131.7297, "lat": 44.58836}}, {"name": "Yerofey Pavlovich", "country": "RU", "population": 5409, "coordinates": {"lon": 121.95805, "lat": 53.96305}}, {"name": "Ust\u2019-Uda", "country": "RU", "population": 12485, "coordinates": {"lon": 103.0304, "lat": 54.1742}}, {"name": "Rudnogorsk", "country": "RU", "population": 16271, "coordinates": {"lon": 103.7519, "lat": 57.2639}}, {"name": "Okino-Klyuchi", "country": "RU", "population": 1100, "coordinates": {"lon": 107.10944, "lat": 50.59389}}, {"name": "Livadiya", "country": "RU", "population": 266011, "coordinates": {"lon": 132.67367, "lat": 42.8682}}, {"name": "Khandyga", "country": "RU", "population": 6796, "coordinates": {"lon": 135.5667, "lat": 62.65333}}, {"name": "Borogontsy", "country": "RU", "population": 5280, "coordinates": {"lon": 131.16344, "lat": 62.6706}}, {"name": "Bayanday", "country": "RU", "population": 2854, "coordinates": {"lon": 105.51389, "lat": 53.06611}}, {"name": "Amga", "country": "RU", "population": 6151, "coordinates": {"lon": 131.97882, "lat": 60.90009}}, {"name": "Kholodnyy", "country": "RU", "population": 1247, "coordinates": {"lon": 147.91361, "lat": 62.71333}}, {"name": "Izluchinsk", "country": "RU", "population": 311628, "coordinates": {"lon": 76.92421, "lat": 60.97944}}, {"name": "Kibungo", "country": "RW", "population": 46240, "coordinates": {"lon": 30.5427, "lat": -2.1597}}, {"name": "At T\u016bb\u012b", "country": "SA", "population": 373909, "coordinates": {"lon": 49.99167, "lat": 26.55778}}, {"name": "Abqaiq", "country": "SA", "population": 29474, "coordinates": {"lon": 49.6688, "lat": 25.93402}}, {"name": "Badr \u1e28unayn", "country": "SA", "population": 27257, "coordinates": {"lon": 38.79047, "lat": 23.78292}}, {"name": "Al Muwayh", "country": "SA", "population": 7364, "coordinates": {"lon": 41.75829, "lat": 22.43333}}, {"name": "Sinnar", "country": "SD", "population": 130122, "coordinates": {"lon": 33.56718, "lat": 13.56907}}, {"name": "Str\u00f6msund", "country": "SE", "population": 63097, "coordinates": {"lon": 15.55583, "lat": 63.85206}}, {"name": "R\u00f6nn\u00e4ng", "country": "SE", "population": 88903, "coordinates": {"lon": 11.58333, "lat": 57.93333}}, {"name": "Jokkmokk", "country": "SE", "population": 2794, "coordinates": {"lon": 19.82324, "lat": 66.60665}}, {"name": "Herrljunga", "country": "SE", "population": 46591, "coordinates": {"lon": 13.02662, "lat": 58.07739}}, {"name": "Lehota pod Vt\u00e1\u010dnikom", "country": "SK", "population": 232677, "coordinates": {"lon": 18.59944, "lat": 48.69138}}, {"name": "Bonthe", "country": "SL", "population": 10206, "coordinates": {"lon": -12.505, "lat": 7.52639}}, {"name": "Saacow", "country": "SO", "population": 7893, "coordinates": {"lon": 42.44067, "lat": 1.62794}}, {"name": "Kismayo", "country": "SO", "population": 234852, "coordinates": {"lon": 42.54536, "lat": -0.35817}}, {"name": "Ath Thawrah", "country": "SY", "population": 87880, "coordinates": {"lon": 38.54828, "lat": 35.83758}}, {"name": "Pala", "country": "TD", "population": 35466, "coordinates": {"lon": 14.90725, "lat": 9.3646}}, {"name": "Massakory", "country": "TD", "population": 15406, "coordinates": {"lon": 15.73195, "lat": 12.99809}}, {"name": "Atakpam\u00e9", "country": "TG", "population": 114553, "coordinates": {"lon": 1.13333, "lat": 7.53333}}, {"name": "Manatutu", "country": "TL", "population": 173280, "coordinates": {"lon": 126.01306, "lat": -8.51139}}, {"name": "Lospalos", "country": "TL", "population": 17186, "coordinates": {"lon": 126.99833, "lat": -8.52167}}, {"name": "Silveira", "country": "PT", "population": 255523, "coordinates": {"lon": -9.3643, "lat": 39.1112}}, {"name": "Relva", "country": "PT", "population": 103762, "coordinates": {"lon": -25.71848, "lat": 37.75271}}, {"name": "Ulma", "country": "RO", "population": 193232, "coordinates": {"lon": 25.3, "lat": 47.88333}}, {"name": "Rotunda", "country": "RO", "population": 232858, "coordinates": {"lon": 26.96266, "lat": 47.0221}}, {"name": "R\u0103sc\u0103e\u021bi", "country": "RO", "population": 401481, "coordinates": {"lon": 25.2699, "lat": 44.59221}}, {"name": "Jor\u0103\u0219ti", "country": "RO", "population": 239187, "coordinates": {"lon": 27.26335, "lat": 45.71477}}, {"name": "Cubulcut", "country": "RO", "population": 439874, "coordinates": {"lon": 22.18648, "lat": 47.3227}}, {"name": "Corne\u015fti", "country": "RO", "population": 138565, "coordinates": {"lon": 25.86667, "lat": 44.78333}}, {"name": "Novi Pazar", "country": "RS", "population": 89709, "coordinates": {"lon": 20.51222, "lat": 43.13667}}, {"name": "Vuktyl", "country": "RU", "population": 13693, "coordinates": {"lon": 57.30944, "lat": 63.85667}}, {"name": "Pryluky", "country": "UA", "population": 92666, "coordinates": {"lon": 32.38761, "lat": 50.59323}}, {"name": "Prymorsk", "country": "UA", "population": 11157, "coordinates": {"lon": 36.34599, "lat": 46.73415}}, {"name": "Khotyn", "country": "UA", "population": 285704, "coordinates": {"lon": 26.48978, "lat": 48.50555}}, {"name": "Dobromyl", "country": "UA", "population": 4537, "coordinates": {"lon": 22.78666, "lat": 49.57086}}, {"name": "Beryslav", "country": "UA", "population": 153141, "coordinates": {"lon": 33.42664, "lat": 46.83851}}, {"name": "Stepove", "country": "UA", "population": 176593, "coordinates": {"lon": 30.07919, "lat": 46.70385}}, {"name": "Kinsey", "country": "US", "population": 104756, "coordinates": {"lon": -85.34438, "lat": 31.29906}}, {"name": "Harkers Island", "country": "US", "population": 1207, "coordinates": {"lon": -76.55937, "lat": 34.69516}}, {"name": "Nashville", "country": "US", "population": 135900, "coordinates": {"lon": -77.96554, "lat": 35.9746}}, {"name": "Robbinsville", "country": "US", "population": 6750, "coordinates": {"lon": -83.8074, "lat": 35.32287}}, {"name": "Hilton Head Island", "country": "US", "population": 138969, "coordinates": {"lon": -80.73816, "lat": 32.19382}}, {"name": "York", "country": "US", "population": 90655, "coordinates": {"lon": -81.24202, "lat": 34.9943}}, {"name": "Ronceverte", "country": "US", "population": 23171, "coordinates": {"lon": -80.46285, "lat": 37.74984}}, {"name": "Pazarc\u0131k", "country": "TR", "population": 23850, "coordinates": {"lon": 37.29961, "lat": 37.48685}}, {"name": "Ba\u015fkale", "country": "TR", "population": 14516, "coordinates": {"lon": 44.01718, "lat": 38.04526}}, {"name": "Baklan", "country": "TR", "population": 61821, "coordinates": {"lon": 29.60861, "lat": 37.97694}}, {"name": "Vezirk\u00f6pr\u00fc", "country": "TR", "population": 274854, "coordinates": {"lon": 35.45472, "lat": 41.14361}}, {"name": "Eynesil", "country": "TR", "population": 705556, "coordinates": {"lon": 39.14274, "lat": 41.06436}}, {"name": "Ngorongoro", "country": "TZ", "population": 48393, "coordinates": {"lon": 35.48747, "lat": -3.23973}}, {"name": "Longido", "country": "TZ", "population": 9403, "coordinates": {"lon": 36.69773, "lat": -2.73319}}, {"name": "Kilosa", "country": "TZ", "population": 91889, "coordinates": {"lon": 36.98333, "lat": -6.83333}}, {"name": "Kilimatinde", "country": "TZ", "population": 5975, "coordinates": {"lon": 34.95, "lat": -5.85}}, {"name": "Kidatu", "country": "TZ", "population": 90275, "coordinates": {"lon": 36.95722, "lat": -7.69916}}, {"name": "Izazi", "country": "TZ", "population": 18010, "coordinates": {"lon": 35.73333, "lat": -7.2}}, {"name": "Fatehpur", "country": "PK", "population": 122714, "coordinates": {"lon": 71.2048, "lat": 31.17772}}, {"name": "Bhera", "country": "PK", "population": 428378, "coordinates": {"lon": 72.90865, "lat": 32.48206}}, {"name": "Barishal", "country": "PK", "population": 2005, "coordinates": {"lon": 74.69502, "lat": 36.32162}}, {"name": "Miedziana G\u00f3ra", "country": "PL", "population": 409633, "coordinates": {"lon": 20.55096, "lat": 50.9368}}, {"name": "Goworowo", "country": "PL", "population": 419144, "coordinates": {"lon": 21.55578, "lat": 52.90083}}, {"name": "Pisarzowice", "country": "PL", "population": 156146, "coordinates": {"lon": 15.23057, "lat": 51.14479}}, {"name": "Surovikino", "country": "RU", "population": 83831, "coordinates": {"lon": 42.84621, "lat": 48.60734}}, {"name": "Stroitel", "country": "RU", "population": 18636, "coordinates": {"lon": 36.47751, "lat": 50.78816}}, {"name": "Houshan", "country": "CN", "population": 217728, "coordinates": {"lon": 108.02866, "lat": 30.82589}}, {"name": "Beitanzhuang", "country": "CN", "population": 11755, "coordinates": {"lon": 114.28775, "lat": 38.5132}}, {"name": "Kashitashi", "country": "CN", "population": 6099, "coordinates": {"lon": 79.91459, "lat": 36.30431}}, {"name": "Tarapac\u00e1", "country": "CO", "population": 3100, "coordinates": {"lon": -69.742, "lat": -2.892}}, {"name": "Puerto Rico", "country": "CO", "population": 274745, "coordinates": {"lon": -75.15931, "lat": 1.90999}}, {"name": "Planeta Rica", "country": "CO", "population": 69708, "coordinates": {"lon": -75.58508, "lat": 8.4115}}, {"name": "Nuqu\u00ed", "country": "CO", "population": 2741, "coordinates": {"lon": -77.27083, "lat": 5.7125}}, {"name": "Cumaribo", "country": "CO", "population": 23990, "coordinates": {"lon": -69.79897, "lat": 4.44552}}, {"name": "Ariguan\u00ed", "country": "CO", "population": 95358, "coordinates": {"lon": -74.0, "lat": 10.25}}, {"name": "Flying Fish Cove", "country": "CX", "population": 500, "coordinates": {"lon": 105.67912, "lat": -10.42172}}, {"name": "Mes\u00f3gi", "country": "CY", "population": 72375, "coordinates": {"lon": 32.45627, "lat": 34.81529}}, {"name": "Sankt Kilian", "country": "DE", "population": 291447, "coordinates": {"lon": 10.76301, "lat": 50.52749}}, {"name": "D\u00e9dougou", "country": "BF", "population": 63617, "coordinates": {"lon": -3.46075, "lat": 12.46338}}, {"name": "Dano", "country": "BF", "population": 25922, "coordinates": {"lon": -3.05784, "lat": 11.1464}}, {"name": "Santa Ana de Yacuma", "country": "BO", "population": 12783, "coordinates": {"lon": -65.42688, "lat": -13.74406}}, {"name": "Santa Maria da Vit\u00f3ria", "country": "BR", "population": 23488, "coordinates": {"lon": -44.19868, "lat": -13.38814}}, {"name": "Palmeira das Miss\u00f5es", "country": "BR", "population": 222523, "coordinates": {"lon": -53.31361, "lat": -27.89944}}, {"name": "Lad\u00e1rio", "country": "BR", "population": 15790, "coordinates": {"lon": -57.60167, "lat": -19.00472}}, {"name": "Itaqui", "country": "BR", "population": 34631, "coordinates": {"lon": -56.55306, "lat": -29.12528}}, {"name": "Imbituba", "country": "BR", "population": 150406, "coordinates": {"lon": -48.67028, "lat": -28.24}}, {"name": "Goian\u00e9sia", "country": "BR", "population": 47883, "coordinates": {"lon": -49.1175, "lat": -15.3175}}, {"name": "Erechim", "country": "BR", "population": 96087, "coordinates": {"lon": -52.2754, "lat": -27.63461}}, {"name": "Curvelo", "country": "BR", "population": 63954, "coordinates": {"lon": -44.43083, "lat": -18.75639}}, {"name": "Coxim", "country": "BR", "population": 30215, "coordinates": {"lon": -54.76, "lat": -18.50667}}, {"name": "Conselheiro Pena", "country": "BR", "population": 12734, "coordinates": {"lon": -41.47222, "lat": -19.17222}}, {"name": "Concei\u00e7\u00e3o da Barra", "country": "BR", "population": 19309, "coordinates": {"lon": -39.73222, "lat": -18.59333}}, {"name": "Capim Grosso", "country": "BR", "population": 17322, "coordinates": {"lon": -40.01278, "lat": -11.38111}}, {"name": "S\u00e3o Gabriel da Cachoeira", "country": "BR", "population": 15231, "coordinates": {"lon": -67.08527, "lat": -0.1181}}, {"name": "Xinguara", "country": "BR", "population": 43530, "coordinates": {"lon": -49.9435, "lat": -7.09829}}, {"name": "Mopipi", "country": "BW", "population": 3301, "coordinates": {"lon": 24.88333, "lat": -21.18333}}, {"name": "Khakhea", "country": "BW", "population": 2133, "coordinates": {"lon": 23.49403, "lat": -24.68954}}, {"name": "Janeng", "country": "BW", "population": 16853, "coordinates": {"lon": 25.55, "lat": -25.41667}}, {"name": "San Pedro", "country": "BZ", "population": 86348, "coordinates": {"lon": -87.9659, "lat": 17.91598}}, {"name": "Happy Valley-Goose Bay", "country": "CA", "population": 7572, "coordinates": {"lon": -60.32576, "lat": 53.3038}}, {"name": "Iqaluit", "country": "CA", "population": 7429, "coordinates": {"lon": -68.51727, "lat": 63.74697}}, {"name": "Prescott", "country": "CA", "population": 33810, "coordinates": {"lon": -75.51604, "lat": 44.71681}}, {"name": "Vanderhoof", "country": "CA", "population": 1462, "coordinates": {"lon": -124.01982, "lat": 54.01657}}, {"name": "Wawa", "country": "CA", "population": 2905, "coordinates": {"lon": -84.77411, "lat": 47.98877}}, {"name": "Tofino", "country": "CA", "population": 1932, "coordinates": {"lon": -125.90744, "lat": 49.15314}}, {"name": "Lusambo", "country": "CD", "population": 41416, "coordinates": {"lon": 23.44391, "lat": -4.97503}}, {"name": "Kindu", "country": "CD", "population": 135698, "coordinates": {"lon": 25.92237, "lat": -2.94373}}, {"name": "Kananga", "country": "CD", "population": 463546, "coordinates": {"lon": 22.41659, "lat": -5.89624}}, {"name": "Kambove", "country": "CD", "population": 36702, "coordinates": {"lon": 26.59746, "lat": -10.87352}}, {"name": "Mushie", "country": "CD", "population": 33062, "coordinates": {"lon": 16.92238, "lat": -3.01728}}, {"name": "Moanda", "country": "CD", "population": 50000, "coordinates": {"lon": 12.37148, "lat": -5.92753}}, {"name": "Kemb\u00e9", "country": "CF", "population": 20849, "coordinates": {"lon": 21.88645, "lat": 4.62275}}, {"name": "Bimbo", "country": "CF", "population": 129655, "coordinates": {"lon": 18.41583, "lat": 4.25671}}, {"name": "Oberurnen", "country": "CH", "population": 338081, "coordinates": {"lon": 9.05866, "lat": 47.11412}}, {"name": "San-P\u00e9dro", "country": "CI", "population": 390654, "coordinates": {"lon": -6.6363, "lat": 4.74851}}, {"name": "Mankono", "country": "CI", "population": 19095, "coordinates": {"lon": -6.18972, "lat": 8.05861}}, {"name": "Korhogo", "country": "CI", "population": 440926, "coordinates": {"lon": -5.62961, "lat": 9.45803}}, {"name": "Guiglo", "country": "CI", "population": 39134, "coordinates": {"lon": -7.4935, "lat": 6.54368}}, {"name": "S\u00e9gu\u00e9la", "country": "CI", "population": 103980, "coordinates": {"lon": -6.67306, "lat": 7.96111}}, {"name": "Ala\u00efli \u1e0ea\u1e0f\u1e0fa\u2018", "country": "DJ", "population": 1456, "coordinates": {"lon": 42.89556, "lat": 12.42167}}, {"name": "Thur\u00f8 By", "country": "DK", "population": 72375, "coordinates": {"lon": 10.66385, "lat": 55.0474}}, {"name": "Kvistg\u00e5rd", "country": "DK", "population": 153575, "coordinates": {"lon": 12.50446, "lat": 55.99348}}, {"name": "Esteban\u00eda", "country": "DO", "population": 169885, "coordinates": {"lon": -70.6435, "lat": 18.4577}}, {"name": "Mostaganem", "country": "DZ", "population": 130000, "coordinates": {"lon": 0.08918, "lat": 35.93115}}, {"name": "A\u00efn Sefra", "country": "DZ", "population": 63420, "coordinates": {"lon": -0.58333, "lat": 32.75}}, {"name": "Adrar", "country": "DZ", "population": 43903, "coordinates": {"lon": -0.29388, "lat": 27.87429}}, {"name": "Puerto Francisco de Orellana", "country": "EC", "population": 48144, "coordinates": {"lon": -76.98719, "lat": -0.46645}}, {"name": "Arish", "country": "EG", "population": 199243, "coordinates": {"lon": 33.79844, "lat": 31.13159}}, {"name": "Teseney", "country": "ER", "population": 3753, "coordinates": {"lon": 36.6575, "lat": 15.11}}, {"name": "Co\u00edn", "country": "ES", "population": 438746, "coordinates": {"lon": -4.75639, "lat": 36.65947}}, {"name": "Badajoz", "country": "ES", "population": 278725, "coordinates": {"lon": -6.97061, "lat": 38.87789}}, {"name": "Alcoba", "country": "ES", "population": 21886, "coordinates": {"lon": -4.47715, "lat": 39.25988}}, {"name": "Verd\u00fa", "country": "ES", "population": 104036, "coordinates": {"lon": 1.14284, "lat": 41.61057}}, {"name": "Fariza", "country": "ES", "population": 19466, "coordinates": {"lon": -6.26667, "lat": 41.41667}}, {"name": "Metah\u0101ra", "country": "ET", "population": 23403, "coordinates": {"lon": 39.91667, "lat": 8.9}}, {"name": "Dabat", "country": "ET", "population": 11544, "coordinates": {"lon": 37.765, "lat": 12.98417}}, {"name": "Axum", "country": "ET", "population": 41249, "coordinates": {"lon": 38.72337, "lat": 14.12109}}, {"name": "La Jarrie", "country": "FR", "population": 245630, "coordinates": {"lon": -1.00955, "lat": 46.12888}}, {"name": "Hirson", "country": "FR", "population": 201561, "coordinates": {"lon": 4.08259, "lat": 49.92262}}, {"name": "Aubigny-sur-N\u00e8re", "country": "FR", "population": 79962, "coordinates": {"lon": 2.43895, "lat": 47.48819}}, {"name": "Alen\u00e7on", "country": "FR", "population": 878003, "coordinates": {"lon": 0.09311, "lat": 48.43476}}, {"name": "Cocobeach", "country": "GA", "population": 1653, "coordinates": {"lon": 9.58229, "lat": 1.00019}}, {"name": "Boou\u00e9", "country": "GA", "population": 5787, "coordinates": {"lon": 11.93846, "lat": -0.09207}}, {"name": "Bitam", "country": "GA", "population": 10297, "coordinates": {"lon": 11.50065, "lat": 2.07597}}, {"name": "Stornoway", "country": "GB", "population": 7500, "coordinates": {"lon": -6.38649, "lat": 58.20925}}, {"name": "Palena", "country": "CL", "population": 1690, "coordinates": {"lon": -71.80434, "lat": -43.61876}}, {"name": "Lebu", "country": "CL", "population": 22345, "coordinates": {"lon": -73.65356, "lat": -37.60825}}, {"name": "La Tirana", "country": "CL", "population": 19970, "coordinates": {"lon": -69.65671, "lat": -20.33552}}, {"name": "Tchollir\u00e9", "country": "CM", "population": 23187, "coordinates": {"lon": 14.1698, "lat": 8.4022}}, {"name": "Nanga Eboko", "country": "CM", "population": 29909, "coordinates": {"lon": 12.36667, "lat": 4.68333}}, {"name": "Mamfe", "country": "CM", "population": 19472, "coordinates": {"lon": 9.3137, "lat": 5.75132}}, {"name": "Kribi", "country": "CM", "population": 55224, "coordinates": {"lon": 9.90765, "lat": 2.93725}}, {"name": "Akom II", "country": "CM", "population": 9709, "coordinates": {"lon": 10.56667, "lat": 2.78333}}, {"name": "Yingpan", "country": "CN", "population": 144596, "coordinates": {"lon": 99.15, "lat": 26.45}}, {"name": "Qamdo", "country": "CN", "population": 86280, "coordinates": {"lon": 97.17982, "lat": 31.1304}}, {"name": "Yuxia", "country": "CN", "population": 60206, "coordinates": {"lon": 108.62905, "lat": 34.06153}}, {"name": "Fuding", "country": "CN", "population": 192352, "coordinates": {"lon": 120.21399, "lat": 27.32734}}, {"name": "Mengcheng Chengguanzhen", "country": "CN", "population": 69916, "coordinates": {"lon": 116.56605, "lat": 33.26611}}, {"name": "Juye", "country": "CN", "population": 58107, "coordinates": {"lon": 116.07168, "lat": 35.38737}}, {"name": "Hancheng", "country": "CN", "population": 58049, "coordinates": {"lon": 110.42917, "lat": 35.46028}}, {"name": "Ehen Hudag", "country": "CN", "population": 16798, "coordinates": {"lon": 101.66898, "lat": 39.21074}}, {"name": "Dongcun", "country": "CN", "population": 92282, "coordinates": {"lon": 121.15972, "lat": 36.77667}}, {"name": "Fengcheng", "country": "CN", "population": 120514, "coordinates": {"lon": 124.07167, "lat": 40.45361}}, {"name": "Bei\u2019an", "country": "CN", "population": 436444, "coordinates": {"lon": 126.6, "lat": 48.26667}}, {"name": "Boddam", "country": "GB", "population": 48250, "coordinates": {"lon": -1.78009, "lat": 57.47076}}, {"name": "Ancaster", "country": "GB", "population": 236769, "coordinates": {"lon": -0.53593, "lat": 52.98276}}, {"name": "Victoria", "country": "GD", "population": 18251, "coordinates": {"lon": -61.70677, "lat": 12.19021}}, {"name": "Wa", "country": "GH", "population": 78107, "coordinates": {"lon": -2.50192, "lat": 10.06069}}, {"name": "Kintampo", "country": "GH", "population": 47185, "coordinates": {"lon": -1.73058, "lat": 8.05627}}, {"name": "Foso", "country": "GH", "population": 20078, "coordinates": {"lon": -1.28657, "lat": 5.70119}}, {"name": "Gibraltar", "country": "GI", "population": 26544, "coordinates": {"lon": -5.35257, "lat": 36.14474}}, {"name": "Kumbija", "country": "GM", "population": 59857, "coordinates": {"lon": -14.18333, "lat": 13.26667}}, {"name": "Siguirini", "country": "GN", "population": 2054, "coordinates": {"lon": -10.04548, "lat": 11.8288}}, {"name": "Juist", "country": "DE", "population": 1751, "coordinates": {"lon": 6.99575, "lat": 53.67787}}, {"name": "Esthal", "country": "DE", "population": 152594, "coordinates": {"lon": 7.98333, "lat": 49.38333}}, {"name": "Ivalo", "country": "FI", "population": 3998, "coordinates": {"lon": 27.53891, "lat": 68.65986}}, {"name": "Ilomantsi", "country": "FI", "population": 6408, "coordinates": {"lon": 30.93276, "lat": 62.67162}}, {"name": "Hirvensalmi", "country": "FI", "population": 130864, "coordinates": {"lon": 26.8, "lat": 61.63333}}, {"name": "Himanka", "country": "FI", "population": 25358, "coordinates": {"lon": 23.65447, "lat": 64.06218}}, {"name": "S\u00f8rv\u00e1gur", "country": "FO", "population": 35042, "coordinates": {"lon": -7.30749, "lat": 62.07203}}, {"name": "Ortenburg", "country": "DE", "population": 373399, "coordinates": {"lon": 13.2225, "lat": 48.54597}}, {"name": "Umina Beach", "country": "AU", "population": 308222, "coordinates": {"lon": 151.31325, "lat": -33.52314}}, {"name": "Mount Buller", "country": "AU", "population": 9987, "coordinates": {"lon": 146.43694, "lat": -37.14595}}, {"name": "Santa Cruz", "country": "AW", "population": 103098, "coordinates": {"lon": -69.98094, "lat": 12.50953}}, {"name": "Shibganj", "country": "BD", "population": 35961, "coordinates": {"lon": 88.15638, "lat": 24.68501}}, {"name": "Manderfeld", "country": "BE", "population": 7830, "coordinates": {"lon": 6.33919, "lat": 50.3312}}, {"name": "Cuito", "country": "AO", "population": 113624, "coordinates": {"lon": 16.93333, "lat": -12.38333}}, {"name": "It\u00e1 Ibat\u00e9", "country": "AR", "population": 4115, "coordinates": {"lon": -57.33758, "lat": -27.42573}}, {"name": "Lincoln", "country": "AR", "population": 41808, "coordinates": {"lon": -61.5302, "lat": -34.86649}}, {"name": "La Toma", "country": "AR", "population": 6663, "coordinates": {"lon": -65.62254, "lat": -33.05353}}, {"name": "Campo Gallo", "country": "AR", "population": 5455, "coordinates": {"lon": -62.85, "lat": -26.58333}}, {"name": "Gr\u00fcnbach am Schneeberg", "country": "AT", "population": 251329, "coordinates": {"lon": 15.98785, "lat": 47.79747}}, {"name": "Port Lincoln", "country": "AU", "population": 13810, "coordinates": {"lon": 135.87442, "lat": -34.72625}}, {"name": "Peterborough", "country": "AU", "population": 1530, "coordinates": {"lon": 138.84073, "lat": -32.97205}}, {"name": "Merredin", "country": "AU", "population": 2851, "coordinates": {"lon": 118.27448, "lat": -31.48094}}, {"name": "Alyangula", "country": "AU", "population": 1191, "coordinates": {"lon": 136.42129, "lat": -13.85413}}, {"name": "Stawell", "country": "AU", "population": 5889, "coordinates": {"lon": 142.78088, "lat": -37.05632}}, {"name": "Orange", "country": "AU", "population": 42971, "coordinates": {"lon": 149.10018, "lat": -33.28397}}, {"name": "Kyabram", "country": "AU", "population": 79972, "coordinates": {"lon": 145.05035, "lat": -36.31335}}, {"name": "Dorrigo", "country": "AU", "population": 45801, "coordinates": {"lon": 152.71394, "lat": -30.34112}}, {"name": "Donald", "country": "AU", "population": 1469, "coordinates": {"lon": 142.98106, "lat": -36.36864}}, {"name": "Cloncurry", "country": "AU", "population": 3810, "coordinates": {"lon": 140.51303, "lat": -20.70718}}, {"name": "Boorowa", "country": "AU", "population": 30889, "coordinates": {"lon": 148.71634, "lat": -34.43661}}, {"name": "Bongaree", "country": "AU", "population": 238715, "coordinates": {"lon": 153.15942, "lat": -27.08367}}, {"name": "Mart\u00ednez de la Torre", "country": "MX", "population": 188508, "coordinates": {"lon": -97.06078, "lat": 20.07082}}, {"name": "Ixcuinquitlapilco", "country": "MX", "population": 143453, "coordinates": {"lon": -98.9398, "lat": 20.11091}}, {"name": "Hopelch\u00e9n", "country": "MX", "population": 260880, "coordinates": {"lon": -89.84437, "lat": 19.74671}}, {"name": "Ciudad Serd\u00e1n", "country": "MX", "population": 113703, "coordinates": {"lon": -97.44643, "lat": 18.98856}}, {"name": "La Patria", "country": "MX", "population": 223052, "coordinates": {"lon": -91.91148, "lat": 16.22975}}, {"name": "Cuesta Blanca", "country": "MX", "population": 411815, "coordinates": {"lon": -97.46753, "lat": 18.84536}}, {"name": "Sonoita", "country": "MX", "population": 12849, "coordinates": {"lon": -112.85129, "lat": 31.86165}}, {"name": "Petatl\u00e1n", "country": "MX", "population": 150523, "coordinates": {"lon": -101.26798, "lat": 17.53768}}, {"name": "La Herradura", "country": "MX", "population": 4298, "coordinates": {"lon": -101.74547, "lat": 23.02823}}, {"name": "Heroica Caborca", "country": "MX", "population": 73259, "coordinates": {"lon": -112.15822, "lat": 30.71825}}, {"name": "Coalcom\u00e1n de V\u00e1zquez Pallares", "country": "MX", "population": 180238, "coordinates": {"lon": -103.16, "lat": 18.7775}}, {"name": "Cofrad\u00eda de Ju\u00e1rez", "country": "MX", "population": 439270, "coordinates": {"lon": -103.95549, "lat": 18.96261}}, {"name": "San Isidro", "country": "MX", "population": 383252, "coordinates": {"lon": -109.25111, "lat": 25.97722}}, {"name": "Cuapinolito (Azulillo)", "country": "MX", "population": 169275, "coordinates": {"lon": -96.31833, "lat": 15.82194}}, {"name": "Ciudad Guzm\u00e1n [CERESO]", "country": "MX", "population": 282229, "coordinates": {"lon": -103.5, "lat": 19.65194}}, {"name": "Derramadero Segundo (Infiernillo)", "country": "MX", "population": 372006, "coordinates": {"lon": -100.51417, "lat": 21.0975}}, {"name": "Nacala", "country": "MZ", "population": 225034, "coordinates": {"lon": 40.68538, "lat": -14.56257}}, {"name": "Tses", "country": "NA", "population": 2000, "coordinates": {"lon": 18.12469, "lat": -25.88489}}, {"name": "Oranjemund", "country": "NA", "population": 8496, "coordinates": {"lon": 16.42728, "lat": -28.55153}}, {"name": "Madaoua", "country": "NE", "population": 40905, "coordinates": {"lon": 5.96, "lat": 14.073}}, {"name": "Kingston", "country": "NF", "population": 880, "coordinates": {"lon": 167.96628, "lat": -29.05459}}, {"name": "Yenagoa", "country": "NG", "population": 39707, "coordinates": {"lon": 6.26764, "lat": 4.92675}}, {"name": "Brennero", "country": "IT", "population": 48685, "coordinates": {"lon": 11.50633, "lat": 47.00571}}, {"name": "Aquara", "country": "IT", "population": 216785, "coordinates": {"lon": 15.25386, "lat": 40.44391}}, {"name": "Porto Viro", "country": "IT", "population": 92495, "coordinates": {"lon": 12.21754, "lat": 45.02678}}, {"name": "Viddalba", "country": "IT", "population": 313528, "coordinates": {"lon": 8.89009, "lat": 40.91259}}, {"name": "Villapiana Lido", "country": "IT", "population": 479211, "coordinates": {"lon": 16.4882, "lat": 39.81203}}, {"name": "\u015eab\u1e29\u0101", "country": "JO", "population": 115298, "coordinates": {"lon": 36.50159, "lat": 32.32696}}, {"name": "Rukban", "country": "JO", "population": 85000, "coordinates": {"lon": 38.70342, "lat": 33.31405}}, {"name": "Mtito Andei", "country": "KE", "population": 4763, "coordinates": {"lon": 38.16687, "lat": -2.68987}}, {"name": "Cholpon-Ata", "country": "KG", "population": 14237, "coordinates": {"lon": 77.08225, "lat": 42.64944}}, {"name": "Battambang", "country": "KH", "population": 119251, "coordinates": {"lon": 103.19822, "lat": 13.10271}}, {"name": "Makin Village", "country": "KI", "population": 1834, "coordinates": {"lon": 172.98352, "lat": 3.3644}}, {"name": "Assimpao", "country": "KM", "population": 192075, "coordinates": {"lon": 44.31972, "lat": -12.23306}}, {"name": "Akkol\u2019", "country": "KZ", "population": 4245, "coordinates": {"lon": 53.18177, "lat": 48.77358}}, {"name": "Yrghyz", "country": "KZ", "population": 4673, "coordinates": {"lon": 61.26067, "lat": 48.61958}}, {"name": "Mynaral", "country": "KZ", "population": 1303, "coordinates": {"lon": 73.65453, "lat": 45.44344}}, {"name": "Ridder", "country": "KZ", "population": 52664, "coordinates": {"lon": 83.51562, "lat": 50.34524}}, {"name": "Pakxan", "country": "LA", "population": 21967, "coordinates": {"lon": 103.6611, "lat": 18.3942}}, {"name": "Baalbek", "country": "LB", "population": 30916, "coordinates": {"lon": 36.21806, "lat": 34.00583}}, {"name": "Midelt", "country": "MA", "population": 45159, "coordinates": {"lon": -4.74512, "lat": 32.6852}}, {"name": "Morondava", "country": "MG", "population": 53510, "coordinates": {"lon": 44.31782, "lat": -20.28869}}, {"name": "Kili", "country": "MH", "population": 602, "coordinates": {"lon": 169.12109, "lat": 5.64387}}, {"name": "Kinmparana", "country": "ML", "population": 6014, "coordinates": {"lon": -4.9245, "lat": 12.84217}}, {"name": "Kyaukse", "country": "MM", "population": 50480, "coordinates": {"lon": 96.13508, "lat": 21.6056}}, {"name": "Hovd", "country": "MN", "population": 27924, "coordinates": {"lon": 102.17491, "lat": 44.67024}}, {"name": "Mitzpe Ramon", "country": "IL", "population": 5211, "coordinates": {"lon": 34.80111, "lat": 30.60944}}, {"name": "Shillong", "country": "IN", "population": 156518, "coordinates": {"lon": 91.88313, "lat": 25.56892}}, {"name": "Sarg\u016br", "country": "IN", "population": 190595, "coordinates": {"lon": 76.39611, "lat": 11.99971}}, {"name": "Pithora", "country": "IN", "population": 114541, "coordinates": {"lon": 82.51707, "lat": 21.25021}}, {"name": "P\u0101sigh\u0101t", "country": "IN", "population": 25581, "coordinates": {"lon": 95.32678, "lat": 28.06631}}, {"name": "Padam", "country": "IN", "population": 25000, "coordinates": {"lon": 76.88488, "lat": 33.46659}}, {"name": "Honn\u0101li", "country": "IN", "population": 16753, "coordinates": {"lon": 75.64507, "lat": 14.23976}}, {"name": "Hatta", "country": "IN", "population": 164772, "coordinates": {"lon": 79.60119, "lat": 24.13406}}, {"name": "Dhekiajuli", "country": "IN", "population": 145218, "coordinates": {"lon": 92.47808, "lat": 26.70367}}, {"name": "Chopda", "country": "IN", "population": 233686, "coordinates": {"lon": 75.29946, "lat": 21.24578}}, {"name": "Asif\u0101b\u0101d", "country": "IN", "population": 35595, "coordinates": {"lon": 79.28415, "lat": 19.35851}}, {"name": "\u012al\u0101m", "country": "IR", "population": 140940, "coordinates": {"lon": 46.4227, "lat": 33.6374}}, {"name": "Fereyd\u016bnshahr", "country": "IR", "population": 11562, "coordinates": {"lon": 50.11991, "lat": 32.94195}}, {"name": "D\u0101mgh\u0101n", "country": "IR", "population": 67694, "coordinates": {"lon": 54.34292, "lat": 36.1679}}, {"name": "Behshahr", "country": "IR", "population": 93500, "coordinates": {"lon": 53.55262, "lat": 36.69235}}, {"name": "San Vito Lo Capo", "country": "IT", "population": 125061, "coordinates": {"lon": 12.73599, "lat": 38.17395}}, {"name": "Ispica", "country": "IT", "population": 334086, "coordinates": {"lon": 14.9053, "lat": 36.78622}}, {"name": "Cittadella del Capo", "country": "IT", "population": 23634, "coordinates": {"lon": 15.87602, "lat": 39.55932}}, {"name": "Vallebona", "country": "IT", "population": 257856, "coordinates": {"lon": 7.66535, "lat": 43.8122}}, {"name": "Rionero in Vulture", "country": "IT", "population": 683931, "coordinates": {"lon": 15.6711, "lat": 40.92328}}, {"name": "Monticchio", "country": "IT", "population": 173512, "coordinates": {"lon": 13.46382, "lat": 42.32035}}, {"name": "Arna\u00eda", "country": "GR", "population": 40131, "coordinates": {"lon": 23.59537, "lat": 40.48652}}, {"name": "Tiszab\u0151", "country": "HU", "population": 260383, "coordinates": {"lon": 20.48333, "lat": 47.3}}, {"name": "Pangkalan Brandan", "country": "ID", "population": 25542, "coordinates": {"lon": 98.2782, "lat": 4.0238}}, {"name": "Waingapu", "country": "ID", "population": 35932, "coordinates": {"lon": 120.2641, "lat": -9.6567}}, {"name": "Ternate", "country": "ID", "population": 205001, "coordinates": {"lon": 127.38424, "lat": 0.79065}}, {"name": "Tanjung Balai", "country": "ID", "population": 48953, "coordinates": {"lon": 103.42186, "lat": 1.00005}}, {"name": "Mendaha", "country": "ID", "population": 56268, "coordinates": {"lon": 103.59331, "lat": -1.0163}}, {"name": "Kutoarjo", "country": "ID", "population": 155052, "coordinates": {"lon": 109.91278, "lat": -7.71694}}, {"name": "Kendari", "country": "ID", "population": 345107, "coordinates": {"lon": 122.51507, "lat": -3.9778}}, {"name": "Masohi", "country": "ID", "population": 36433, "coordinates": {"lon": 128.96882, "lat": -3.29833}}, {"name": "Harvey", "country": "US", "population": 1779, "coordinates": {"lon": -99.9354, "lat": 47.76972}}, {"name": "Burwell", "country": "US", "population": 1211, "coordinates": {"lon": -99.13315, "lat": 41.78167}}, {"name": "Hartington", "country": "US", "population": 1506, "coordinates": {"lon": -97.2645, "lat": 42.6225}}, {"name": "West Glens Falls", "country": "US", "population": 79411, "coordinates": {"lon": -73.68401, "lat": 43.30007}}, {"name": "Wakeman", "country": "US", "population": 97175, "coordinates": {"lon": -82.39961, "lat": 41.2545}}, {"name": "Gettysburg", "country": "US", "population": 1164, "coordinates": {"lon": -99.95567, "lat": 45.01165}}, {"name": "Sisseton", "country": "US", "population": 2450, "coordinates": {"lon": -97.0498, "lat": 45.66468}}, {"name": "Carrizozo", "country": "US", "population": 941, "coordinates": {"lon": -105.87721, "lat": 33.64174}}, {"name": "Moapa Town", "country": "US", "population": 1025, "coordinates": {"lon": -114.59416, "lat": 36.68219}}, {"name": "Lamesa", "country": "US", "population": 9427, "coordinates": {"lon": -101.95099, "lat": 32.7376}}, {"name": "Beaver", "country": "US", "population": 3007, "coordinates": {"lon": -112.64105, "lat": 38.27691}}, {"name": "Sun Valley", "country": "US", "population": 14584, "coordinates": {"lon": -114.35172, "lat": 43.69713}}, {"name": "Hines", "country": "US", "population": 1525, "coordinates": {"lon": -119.08105, "lat": 43.56404}}, {"name": "Joseph", "country": "US", "population": 1063, "coordinates": {"lon": -117.22961, "lat": 45.35432}}, {"name": "Lyons", "country": "US", "population": 340182, "coordinates": {"lon": -122.61509, "lat": 44.77457}}, {"name": "Rapid City", "country": "US", "population": 98742, "coordinates": {"lon": -103.23101, "lat": 44.08054}}, {"name": "Fords Prairie", "country": "US", "population": 401197, "coordinates": {"lon": -122.98902, "lat": 46.7351}}, {"name": "Volcano", "country": "US", "population": 86294, "coordinates": {"lon": -155.23398, "lat": 19.44276}}, {"name": "Dillingham", "country": "US", "population": 2404, "coordinates": {"lon": -158.4575, "lat": 59.03972}}, {"name": "Hill Air Force Base", "country": "US", "population": 478862, "coordinates": {"lon": -111.97712, "lat": 41.11118}}, {"name": "Lakeview", "country": "US", "population": 134329, "coordinates": {"lon": -85.2742, "lat": 43.44642}}, {"name": "Lakewood Club", "country": "US", "population": 138095, "coordinates": {"lon": -86.26034, "lat": 43.37112}}, {"name": "Lloqan", "country": "XK", "population": 273658, "coordinates": {"lon": 20.28083, "lat": 42.52444}}, {"name": "Zab\u012bd", "country": "YE", "population": 52590, "coordinates": {"lon": 43.31518, "lat": 14.1951}}, {"name": "A\u1e11 \u1e10\u0101li\u2018", "country": "YE", "population": 14760, "coordinates": {"lon": 44.73137, "lat": 13.69572}}, {"name": "Al Madakisha", "country": "YE", "population": 5000, "coordinates": {"lon": 44.40565, "lat": 13.23663}}, {"name": "Christiana", "country": "ZA", "population": 17523, "coordinates": {"lon": 25.16111, "lat": -27.91402}}, {"name": "Belfast", "country": "ZA", "population": 11916, "coordinates": {"lon": 30.03504, "lat": -25.68991}}, {"name": "Mufumbwe", "country": "ZM", "population": 6155, "coordinates": {"lon": 24.8, "lat": -13.68333}}, {"name": "Odzi", "country": "ZW", "population": 235921, "coordinates": {"lon": 32.40557, "lat": -18.96167}}, {"name": "Gwanda", "country": "ZW", "population": 26700, "coordinates": {"lon": 29.00698, "lat": -20.93622}}, {"name": "Chipinge", "country": "ZW", "population": 34959, "coordinates": {"lon": 32.62365, "lat": -20.18833}}, {"name": "Esanatoglia", "country": "IT", "population": 757251, "coordinates": {"lon": 12.9493, "lat": 43.25248}}, {"name": "Samolaco", "country": "IT", "population": 27811, "coordinates": {"lon": 9.39404, "lat": 46.24249}}, {"name": "Porto Cervo", "country": "IT", "population": 120997, "coordinates": {"lon": 9.53267, "lat": 41.14063}}, {"name": "Oscano", "country": "IT", "population": 397991, "coordinates": {"lon": 12.33776, "lat": 43.15863}}, {"name": "Saint Helier", "country": "JE", "population": 28000, "coordinates": {"lon": -2.10491, "lat": 49.18804}}, {"name": "Kyzyl-Bulak", "country": "KG", "population": 107299, "coordinates": {"lon": 71.73726, "lat": 40.0517}}, {"name": "Krong Kep", "country": "KH", "population": 11658, "coordinates": {"lon": 104.31672, "lat": 10.48291}}, {"name": "Kampong Chhnang", "country": "KH", "population": 75244, "coordinates": {"lon": 104.66667, "lat": 12.25}}, {"name": "Buota Village", "country": "KI", "population": 78754, "coordinates": {"lon": 173.13082, "lat": 1.39078}}, {"name": "Mavingouni", "country": "KM", "population": 168945, "coordinates": {"lon": 43.2525, "lat": -11.71639}}, {"name": "Koksan-\u016dp", "country": "KP", "population": 12923, "coordinates": {"lon": 126.66639, "lat": 38.78194}}, {"name": "Kanggye", "country": "KP", "population": 339026, "coordinates": {"lon": 126.58523, "lat": 40.96946}}, {"name": "Yeonggwang", "country": "KR", "population": 232781, "coordinates": {"lon": 126.51181, "lat": 35.27814}}, {"name": "Khromtau", "country": "KZ", "population": 23715, "coordinates": {"lon": 58.43574, "lat": 50.25161}}, {"name": "Turkestan", "country": "KZ", "population": 227098, "coordinates": {"lon": 68.25175, "lat": 43.29733}}, {"name": "Mayqayyng", "country": "KZ", "population": 7695, "coordinates": {"lon": 75.80232, "lat": 51.45981}}, {"name": "Thakh\u00e8k", "country": "LA", "population": 85000, "coordinates": {"lon": 104.83068, "lat": 17.41027}}, {"name": "Luang Prabang", "country": "LA", "population": 47378, "coordinates": {"lon": 102.1525, "lat": 19.8933}}, {"name": "Greenville", "country": "LR", "population": 16434, "coordinates": {"lon": -9.0388, "lat": 5.01133}}, {"name": "Sirte", "country": "LY", "population": 128123, "coordinates": {"lon": 16.58866, "lat": 31.20892}}, {"name": "Errachidia", "country": "MA", "population": 92374, "coordinates": {"lon": -4.42663, "lat": 31.9314}}, {"name": "Nosy Varika", "country": "MG", "population": 37152, "coordinates": {"lon": 48.53333, "lat": -20.58333}}, {"name": "Maevatanana", "country": "MG", "population": 25928, "coordinates": {"lon": 46.83333, "lat": -16.95}}, {"name": "Ampasimanolotra", "country": "MG", "population": 21000, "coordinates": {"lon": 49.06667, "lat": -18.81667}}, {"name": "Lashio", "country": "MM", "population": 131016, "coordinates": {"lon": 97.7498, "lat": 22.9359}}, {"name": "Hakha", "country": "MM", "population": 20000, "coordinates": {"lon": 93.61076, "lat": 22.64452}}, {"name": "Tosontsengel", "country": "MN", "population": 9526, "coordinates": {"lon": 98.28389, "lat": 48.75667}}, {"name": "Tsetserleg", "country": "MN", "population": 21620, "coordinates": {"lon": 101.45417, "lat": 47.475}}, {"name": "Tsengel", "country": "MN", "population": 8348, "coordinates": {"lon": 100.88944, "lat": 49.47833}}, {"name": "Boulenouar", "country": "MR", "population": 1901, "coordinates": {"lon": -16.52404, "lat": 21.28965}}, {"name": "El Gheddiya", "country": "MR", "population": 1709, "coordinates": {"lon": -11.5724, "lat": 17.8257}}, {"name": "Tezu", "country": "IN", "population": 14927, "coordinates": {"lon": 96.12882, "lat": 27.91256}}, {"name": "Suchindram", "country": "IN", "population": 436291, "coordinates": {"lon": 77.46704, "lat": 8.15442}}, {"name": "Chur\u0101ch\u0101ndpur", "country": "IN", "population": 161947, "coordinates": {"lon": 93.66999, "lat": 24.33353}}, {"name": "Bih\u0101r Shar\u012bf", "country": "IN", "population": 750836, "coordinates": {"lon": 85.52389, "lat": 25.20084}}, {"name": "Jaigaon", "country": "IN", "population": 564829, "coordinates": {"lon": 89.37558, "lat": 26.84766}}, {"name": "S\u0101marr\u0101\u2019", "country": "IQ", "population": 158508, "coordinates": {"lon": 43.88568, "lat": 34.1959}}, {"name": "Koysinceq", "country": "IQ", "population": 44987, "coordinates": {"lon": 44.62873, "lat": 36.08289}}, {"name": "H\u012bt", "country": "IQ", "population": 31901, "coordinates": {"lon": 42.82768, "lat": 33.63664}}, {"name": "Yasuj", "country": "IR", "population": 96786, "coordinates": {"lon": 51.58796, "lat": 30.66824}}, {"name": "Bor\u0101zj\u0101n", "country": "IR", "population": 86059, "coordinates": {"lon": 51.2188, "lat": 29.2699}}, {"name": "Trieste", "country": "IT", "population": 230270, "coordinates": {"lon": 13.77678, "lat": 45.64953}}, {"name": "San Giorgio di Livenza", "country": "IT", "population": 41664, "coordinates": {"lon": 12.79692, "lat": 45.6533}}, {"name": "Macugnaga", "country": "IT", "population": 651, "coordinates": {"lon": 7.96783, "lat": 45.96929}}, {"name": "Saint-Alban", "country": "FR", "population": 216966, "coordinates": {"lon": -2.53517, "lat": 48.55748}}, {"name": "Ham-sous-Varsberg", "country": "FR", "population": 378419, "coordinates": {"lon": 6.64702, "lat": 49.18014}}, {"name": "Cherr\u00e9", "country": "FR", "population": 472011, "coordinates": {"lon": 0.65781, "lat": 48.1729}}, {"name": "Ch\u00e2tillon-sur-Cher", "country": "FR", "population": 247532, "coordinates": {"lon": 1.49424, "lat": 47.27571}}, {"name": "Port-Gentil", "country": "GA", "population": 109163, "coordinates": {"lon": 8.78151, "lat": -0.71933}}, {"name": "Nairn", "country": "GB", "population": 47120, "coordinates": {"lon": -3.87973, "lat": 57.58094}}, {"name": "Conon Bridge", "country": "GB", "population": 77300, "coordinates": {"lon": -4.43678, "lat": 57.5663}}, {"name": "Arlesey", "country": "GB", "population": 291806, "coordinates": {"lon": -0.26565, "lat": 52.00713}}, {"name": "Great Corby", "country": "GB", "population": 39679, "coordinates": {"lon": -2.82452, "lat": 54.88169}}, {"name": "St\u2019epants\u2019minda", "country": "GE", "population": 17024, "coordinates": {"lon": 44.64333, "lat": 42.65667}}, {"name": "Saint-Georges", "country": "GF", "population": 2742, "coordinates": {"lon": -51.80243, "lat": 3.88857}}, {"name": "Rodot\u00f3pi", "country": "GR", "population": 106577, "coordinates": {"lon": 20.72656, "lat": 39.70822}}, {"name": "Portari\u00e1", "country": "GR", "population": 340927, "coordinates": {"lon": 22.99948, "lat": 39.3895}}, {"name": "Oc\u00f3s", "country": "GT", "population": 4417, "coordinates": {"lon": -92.19298, "lat": 14.50998}}, {"name": "Cop\u00e1n Ruinas", "country": "HN", "population": 6336, "coordinates": {"lon": -89.15583, "lat": 14.83936}}, {"name": "Komi\u017ea", "country": "HR", "population": 1261, "coordinates": {"lon": 16.09306, "lat": 43.04306}}, {"name": "Buzet", "country": "HR", "population": 222030, "coordinates": {"lon": 13.96667, "lat": 45.40944}}, {"name": "Valbandon", "country": "HR", "population": 91540, "coordinates": {"lon": 13.81344, "lat": 44.91879}}, {"name": "Ouanaminthe", "country": "HT", "population": 49460, "coordinates": {"lon": -71.72475, "lat": 19.54934}}, {"name": "B\u00e1csbokod", "country": "HU", "population": 133343, "coordinates": {"lon": 19.15621, "lat": 46.125}}, {"name": "Sigli", "country": "ID", "population": 105567, "coordinates": {"lon": 95.9609, "lat": 5.3848}}, {"name": "Rantauprapat", "country": "ID", "population": 103009, "coordinates": {"lon": 99.83333, "lat": 2.1}}, {"name": "Meulaboh", "country": "ID", "population": 64646, "coordinates": {"lon": 96.12664, "lat": 4.14402}}, {"name": "Berastagi", "country": "ID", "population": 137825, "coordinates": {"lon": 98.50889, "lat": 3.19468}}, {"name": "Sijunjung", "country": "ID", "population": 27786, "coordinates": {"lon": 100.9774, "lat": -0.7005}}, {"name": "Rantepao", "country": "ID", "population": 40438, "coordinates": {"lon": 119.8978, "lat": -2.9701}}, {"name": "Raha", "country": "ID", "population": 69980, "coordinates": {"lon": 122.7209, "lat": -4.838}}, {"name": "Malinau", "country": "ID", "population": 25596, "coordinates": {"lon": 116.62391, "lat": 3.58855}}, {"name": "Maba", "country": "ID", "population": 12560, "coordinates": {"lon": 128.29197, "lat": 0.7007}}, {"name": "Ambon", "country": "ID", "population": 347288, "coordinates": {"lon": 128.18333, "lat": -3.69583}}, {"name": "Sodankyl\u00e4", "country": "FI", "population": 8942, "coordinates": {"lon": 26.6, "lat": 67.41667}}, {"name": "Pyh\u00e4joki", "country": "FI", "population": 45808, "coordinates": {"lon": 24.23333, "lat": 64.46667}}, {"name": "Puumala", "country": "FI", "population": 2693, "coordinates": {"lon": 28.17495, "lat": 61.52728}}, {"name": "Karjalohja", "country": "FI", "population": 138219, "coordinates": {"lon": 23.71789, "lat": 60.24015}}, {"name": "Hankasalmi", "country": "FI", "population": 49318, "coordinates": {"lon": 26.43333, "lat": 62.38333}}, {"name": "Villeneuve", "country": "FR", "population": 294334, "coordinates": {"lon": 2.03148, "lat": 44.43729}}, {"name": "Pamandzi", "country": "YT", "population": 187381, "coordinates": {"lon": 45.27938, "lat": -12.79674}}, {"name": "Whittlesea", "country": "ZA", "population": 12080, "coordinates": {"lon": 26.82437, "lat": -32.17588}}, {"name": "Phalaborwa", "country": "ZA", "population": 109468, "coordinates": {"lon": 31.14107, "lat": -23.94299}}, {"name": "Hluhluwe", "country": "ZA", "population": 1500, "coordinates": {"lon": 32.26762, "lat": -28.01895}}, {"name": "Kawambwa", "country": "ZM", "population": 20589, "coordinates": {"lon": 29.07913, "lat": -9.7915}}, {"name": "Mount Darwin", "country": "ZW", "population": 6349, "coordinates": {"lon": 31.58381, "lat": -16.77251}}, {"name": "Kariba", "country": "ZW", "population": 27600, "coordinates": {"lon": 28.8, "lat": -16.51667}}, {"name": "Sistranda", "country": "NO", "population": 685, "coordinates": {"lon": 8.83318, "lat": 63.72523}}, {"name": "Rena", "country": "NO", "population": 2216, "coordinates": {"lon": 11.37156, "lat": 61.13222}}, {"name": "Nodeland", "country": "NO", "population": 150657, "coordinates": {"lon": 7.83576, "lat": 58.15517}}, {"name": "Geilo", "country": "NO", "population": 9184, "coordinates": {"lon": 8.20539, "lat": 60.53369}}, {"name": "Dadeldhur\u0101", "country": "NP", "population": 19014, "coordinates": {"lon": 80.58059, "lat": 29.29842}}, {"name": "Taupo", "country": "NZ", "population": 31740, "coordinates": {"lon": 176.08333, "lat": -38.68333}}, {"name": "Quillo", "country": "PE", "population": 596, "coordinates": {"lon": -78.04333, "lat": -9.32988}}, {"name": "Yanaquihua", "country": "PE", "population": 554, "coordinates": {"lon": -72.87583, "lat": -15.77511}}, {"name": "R\u00edo Grande", "country": "PE", "population": 34700, "coordinates": {"lon": -75.19933, "lat": -14.516}}, {"name": "Conima", "country": "PE", "population": 11432, "coordinates": {"lon": -69.4379, "lat": -15.45769}}, {"name": "Chojata", "country": "PE", "population": 727, "coordinates": {"lon": -70.72938, "lat": -16.38873}}, {"name": "Cerro de Pasco", "country": "PE", "population": 94386, "coordinates": {"lon": -76.25668, "lat": -10.66748}}, {"name": "Tinalmud", "country": "PH", "population": 62422, "coordinates": {"lon": 122.878, "lat": 13.5941}}, {"name": "Taft", "country": "PH", "population": 80745, "coordinates": {"lon": 125.41889, "lat": 11.90111}}, {"name": "Mayabon", "country": "PH", "population": 233027, "coordinates": {"lon": 123.1738, "lat": 9.0961}}, {"name": "Josefina", "country": "PH", "population": 38544, "coordinates": {"lon": 123.53333, "lat": 8.2}}, {"name": "Caramoran", "country": "PH", "population": 61031, "coordinates": {"lon": 124.1347, "lat": 13.9849}}, {"name": "Cabarroguis", "country": "PH", "population": 305267, "coordinates": {"lon": 121.52118, "lat": 16.51105}}, {"name": "Bangkal", "country": "PH", "population": 166468, "coordinates": {"lon": 121.06667, "lat": 6.06667}}, {"name": "Bailan", "country": "PH", "population": 347700, "coordinates": {"lon": 122.8301, "lat": 11.4584}}, {"name": "Anda", "country": "PH", "population": 48701, "coordinates": {"lon": 119.95, "lat": 16.2892}}, {"name": "Tank", "country": "PK", "population": 38488, "coordinates": {"lon": 70.38315, "lat": 32.21707}}, {"name": "Mitha Tiwana", "country": "PK", "population": 26390, "coordinates": {"lon": 72.10615, "lat": 32.2454}}, {"name": "Kharan", "country": "PK", "population": 30841, "coordinates": {"lon": 65.41501, "lat": 28.58459}}, {"name": "Gwadar", "country": "PK", "population": 51901, "coordinates": {"lon": 62.32541, "lat": 25.12163}}, {"name": "Bakhri Ahmad Khan", "country": "PK", "population": 134295, "coordinates": {"lon": 70.83796, "lat": 30.73586}}, {"name": "Sarany", "country": "RU", "population": 1224, "coordinates": {"lon": 58.88333, "lat": 58.5}}, {"name": "Sachkovichi", "country": "RU", "population": 175547, "coordinates": {"lon": 32.2246, "lat": 52.3459}}, {"name": "Pavelets", "country": "RU", "population": 34271, "coordinates": {"lon": 39.24601, "lat": 53.78833}}, {"name": "Murmashi", "country": "RU", "population": 448621, "coordinates": {"lon": 32.81147, "lat": 68.81542}}, {"name": "Milyutinskaya", "country": "RU", "population": 2743, "coordinates": {"lon": 41.66788, "lat": 48.62788}}, {"name": "Lyubovsho", "country": "RU", "population": 22814, "coordinates": {"lon": 31.5422, "lat": 52.9851}}, {"name": "Klyavlino", "country": "RU", "population": 354845, "coordinates": {"lon": 52.02674, "lat": 54.26491}}, {"name": "Kaspiyskiy", "country": "RU", "population": 40823, "coordinates": {"lon": 47.37073, "lat": 45.39288}}, {"name": "El\u2019ton", "country": "RU", "population": 3600, "coordinates": {"lon": 46.84703, "lat": 49.1273}}, {"name": "Dorgeli", "country": "RU", "population": 255662, "coordinates": {"lon": 47.29435, "lat": 42.667}}, {"name": "Demyansk", "country": "RU", "population": 5693, "coordinates": {"lon": 32.46568, "lat": 57.64456}}, {"name": "Chermoz", "country": "RU", "population": 10992, "coordinates": {"lon": 56.1577, "lat": 58.7813}}, {"name": "Babino", "country": "RU", "population": 409646, "coordinates": {"lon": 43.6238, "lat": 56.22564}}, {"name": "Ulagan", "country": "RU", "population": 2623, "coordinates": {"lon": 87.96046, "lat": 50.63258}}, {"name": "Ust\u2019-Koksa", "country": "RU", "population": 4008, "coordinates": {"lon": 85.6108, "lat": 50.2696}}, {"name": "Sukhobuzimskoye", "country": "RU", "population": 4550, "coordinates": {"lon": 93.27278, "lat": 56.5}}, {"name": "Sheregesh", "country": "RU", "population": 34449, "coordinates": {"lon": 87.9869, "lat": 52.9209}}, {"name": "Poltavka", "country": "RU", "population": 7103, "coordinates": {"lon": 71.76319, "lat": 54.36629}}, {"name": "Mugur-Aksy", "country": "RU", "population": 4012, "coordinates": {"lon": 90.43739, "lat": 50.38072}}, {"name": "Lokosovo", "country": "RU", "population": 3915, "coordinates": {"lon": 74.81667, "lat": 61.13333}}, {"name": "Kyzyl-Khaya", "country": "RU", "population": 4046, "coordinates": {"lon": 89.87821, "lat": 50.04986}}, {"name": "Kargasok", "country": "RU", "population": 8572, "coordinates": {"lon": 80.85722, "lat": 59.05556}}, {"name": "Idrinskoye", "country": "RU", "population": 15305, "coordinates": {"lon": 92.13583, "lat": 54.37083}}, {"name": "Biskamzha", "country": "RU", "population": 1961, "coordinates": {"lon": 89.52722, "lat": 53.44972}}, {"name": "Vershino-Darasunskiy", "country": "RU", "population": 6451, "coordinates": {"lon": 115.52661, "lat": 52.36604}}, {"name": "Peleduy", "country": "RU", "population": 4556, "coordinates": {"lon": 112.74056, "lat": 59.62889}}, {"name": "Nizhniy Tsasuchey", "country": "RU", "population": 3278, "coordinates": {"lon": 115.13333, "lat": 50.51667}}, {"name": "Kropotkin", "country": "RU", "population": 1765, "coordinates": {"lon": 115.32167, "lat": 58.50944}}, {"name": "Vilyuchinsk", "country": "RU", "population": 248879, "coordinates": {"lon": 158.40469, "lat": 52.9311}}, {"name": "Susuman", "country": "RU", "population": 7367, "coordinates": {"lon": 148.15396, "lat": 62.78075}}, {"name": "Esso", "country": "RU", "population": 1965, "coordinates": {"lon": 158.70708, "lat": 55.92738}}, {"name": "Langepas", "country": "RU", "population": 40000, "coordinates": {"lon": 75.2124, "lat": 61.25439}}, {"name": "Tab\u0101lah", "country": "SA", "population": 5151, "coordinates": {"lon": 42.4, "lat": 19.95}}, {"name": "Hafar Al-Batin", "country": "SA", "population": 271642, "coordinates": {"lon": 45.97077, "lat": 28.43279}}, {"name": "Al Khafj\u012b", "country": "SA", "population": 54857, "coordinates": {"lon": 48.49132, "lat": 28.43905}}, {"name": "Wad az Z\u0101ki", "country": "SD", "population": 9271, "coordinates": {"lon": 32.2065, "lat": 14.4619}}, {"name": "Rabak", "country": "SD", "population": 135281, "coordinates": {"lon": 32.73999, "lat": 13.18087}}, {"name": "El Bauga", "country": "SD", "population": 19141, "coordinates": {"lon": 33.90812, "lat": 18.26197}}, {"name": "L\u00e5ngsele", "country": "SE", "population": 67414, "coordinates": {"lon": 20.25, "lat": 64.81667}}, {"name": "K\u00e9dougou", "country": "SN", "population": 17922, "coordinates": {"lon": -12.18076, "lat": 12.55561}}, {"name": "Gol\u00e9r\u00e9", "country": "SN", "population": 5461, "coordinates": {"lon": -14.10165, "lat": 16.25575}}, {"name": "Wau", "country": "SS", "population": 127384, "coordinates": {"lon": 27.98972, "lat": 7.70111}}, {"name": "Aweil", "country": "SS", "population": 38745, "coordinates": {"lon": 27.39194, "lat": 8.76194}}, {"name": "Maridi", "country": "SS", "population": 14224, "coordinates": {"lon": 29.46944, "lat": 4.91667}}, {"name": "Victoria", "country": "SV", "population": 2023, "coordinates": {"lon": -88.63333, "lat": 13.95}}, {"name": "San Agust\u00edn", "country": "SV", "population": 560623, "coordinates": {"lon": -88.6, "lat": 13.43333}}, {"name": "Corinto", "country": "SV", "population": 98758, "coordinates": {"lon": -87.97139, "lat": 13.81083}}, {"name": "Al May\u0101d\u012bn", "country": "SY", "population": 109285, "coordinates": {"lon": 40.45154, "lat": 35.01982}}, {"name": "Ab\u00e9ch\u00e9", "country": "TD", "population": 74188, "coordinates": {"lon": 20.8324, "lat": 13.82916}}, {"name": "Sarh", "country": "TD", "population": 102528, "coordinates": {"lon": 18.38331, "lat": 9.14555}}, {"name": "Goundi", "country": "TD", "population": 10052, "coordinates": {"lon": 17.36597, "lat": 9.36267}}, {"name": "Bousso", "country": "TD", "population": 13555, "coordinates": {"lon": 16.71076, "lat": 10.48473}}, {"name": "Aozou", "country": "TD", "population": 1880, "coordinates": {"lon": 17.4275, "lat": 21.8375}}, {"name": "Phatthalung", "country": "TH", "population": 43522, "coordinates": {"lon": 100.07792, "lat": 7.61786}}, {"name": "Saladan", "country": "TH", "population": 111491, "coordinates": {"lon": 99.03651, "lat": 7.61342}}, {"name": "Yol\u00f6ten", "country": "TM", "population": 37705, "coordinates": {"lon": 62.35975, "lat": 37.29886}}, {"name": "G\u00fcr\u00fcn", "country": "TR", "population": 12715, "coordinates": {"lon": 37.27097, "lat": 38.72225}}, {"name": "Aya\u015f", "country": "TR", "population": 53268, "coordinates": {"lon": 32.33221, "lat": 40.01933}}, {"name": "Hengchun", "country": "TW", "population": 31288, "coordinates": {"lon": 120.74389, "lat": 22.00417}}, {"name": "Bia\u0142owie\u017ca", "country": "PL", "population": 2670, "coordinates": {"lon": 23.86667, "lat": 52.7}}, {"name": "Bytom Odrza\u0144ski", "country": "PL", "population": 283941, "coordinates": {"lon": 15.82362, "lat": 51.73062}}, {"name": "Arecibo", "country": "PR", "population": 209487, "coordinates": {"lon": -66.71573, "lat": 18.47245}}, {"name": "Villalba", "country": "PR", "population": 456718, "coordinates": {"lon": -66.49212, "lat": 18.12718}}, {"name": "R\u0101b\u016bd", "country": "PS", "population": 92459, "coordinates": {"lon": 35.0162, "lat": 31.43909}}, {"name": "Urleasca", "country": "RO", "population": 314395, "coordinates": {"lon": 27.64736, "lat": 45.13697}}, {"name": "Pilu", "country": "RO", "population": 127001, "coordinates": {"lon": 21.35, "lat": 46.56667}}, {"name": "Nicule\u0219ti", "country": "RO", "population": 2383, "coordinates": {"lon": 25.94221, "lat": 44.68266}}, {"name": "Marin", "country": "RO", "population": 196099, "coordinates": {"lon": 22.81055, "lat": 47.12754}}, {"name": "B\u00e2rsana", "country": "RO", "population": 437213, "coordinates": {"lon": 24.06667, "lat": 47.81667}}, {"name": "Rajince", "country": "RS", "population": 71126, "coordinates": {"lon": 21.69591, "lat": 42.3787}}, {"name": "Zilair", "country": "RU", "population": 5872, "coordinates": {"lon": 57.4392, "lat": 52.2332}}, {"name": "Yemetsk", "country": "RU", "population": 12000, "coordinates": {"lon": 41.78023, "lat": 63.47191}}, {"name": "San Vicente Coyotepec", "country": "MX", "population": 328891, "coordinates": {"lon": -97.82924, "lat": 18.40439}}, {"name": "Santiago Amoltepec", "country": "MX", "population": 15775, "coordinates": {"lon": -97.49674, "lat": 16.64263}}, {"name": "Y\u00e9cora", "country": "MX", "population": 2920, "coordinates": {"lon": -108.92781, "lat": 28.37154}}, {"name": "Villa Hidalgo", "country": "MX", "population": 614, "coordinates": {"lon": -104.91441, "lat": 26.24833}}, {"name": "San Ignacio", "country": "MX", "population": 11139, "coordinates": {"lon": -106.42467, "lat": 23.94105}}, {"name": "Orrante\u00f1o", "country": "MX", "population": 210709, "coordinates": {"lon": -105.33774, "lat": 28.18272}}, {"name": "Guadalupe Victoria", "country": "MX", "population": 1369, "coordinates": {"lon": -107.73835, "lat": 31.53396}}, {"name": "Corerepe", "country": "MX", "population": 259249, "coordinates": {"lon": -108.71488, "lat": 25.62786}}, {"name": "El Lindero", "country": "MX", "population": 346144, "coordinates": {"lon": -98.22, "lat": 21.31278}}, {"name": "Metepec", "country": "MX", "population": 764831, "coordinates": {"lon": -98.74667, "lat": 18.87889}}, {"name": "La Escalera", "country": "MX", "population": 96445, "coordinates": {"lon": -92.52556, "lat": 17.84361}}, {"name": "Zacapalco", "country": "MX", "population": 17515, "coordinates": {"lon": -98.95944, "lat": 18.63917}}, {"name": "Maya Tec\u00fan I", "country": "MX", "population": 5732, "coordinates": {"lon": -90.50641, "lat": 19.15292}}, {"name": "Okakarara", "country": "NA", "population": 5255, "coordinates": {"lon": 17.43333, "lat": -20.58333}}, {"name": "Bouloupari", "country": "NC", "population": 8631, "coordinates": {"lon": 166.05122, "lat": -21.86226}}, {"name": "Ouallam", "country": "NE", "population": 7500, "coordinates": {"lon": 2.08597, "lat": 14.31641}}, {"name": "Patani", "country": "NG", "population": 7327, "coordinates": {"lon": 6.19139, "lat": 5.22885}}, {"name": "Ogwashi-Uku", "country": "NG", "population": 102078, "coordinates": {"lon": 6.52461, "lat": 6.17811}}, {"name": "Miringa", "country": "NG", "population": 113630, "coordinates": {"lon": 12.14626, "lat": 10.73115}}, {"name": "Kari", "country": "NG", "population": 204524, "coordinates": {"lon": 10.561, "lat": 11.2471}}, {"name": "Kamba", "country": "NG", "population": 25568, "coordinates": {"lon": 3.65478, "lat": 11.85172}}, {"name": "Ugbokpo", "country": "NG", "population": 14218, "coordinates": {"lon": 7.8841, "lat": 7.65321}}, {"name": "Ago-Are", "country": "NG", "population": 509560, "coordinates": {"lon": 3.42125, "lat": 8.50498}}, {"name": "Stevensville", "country": "US", "population": 57257, "coordinates": {"lon": -86.51947, "lat": 42.01449}}, {"name": "Grand Marais", "country": "US", "population": 1327, "coordinates": {"lon": -90.33427, "lat": 47.75045}}, {"name": "Sandstone", "country": "US", "population": 2768, "coordinates": {"lon": -92.86742, "lat": 46.13106}}, {"name": "Sussex", "country": "US", "population": 251910, "coordinates": {"lon": -74.60766, "lat": 41.20982}}, {"name": "Branchport", "country": "US", "population": 41890, "coordinates": {"lon": -77.15386, "lat": 42.59868}}, {"name": "Saranac Lake", "country": "US", "population": 16967, "coordinates": {"lon": -74.13127, "lat": 44.3295}}, {"name": "Gibsonburg", "country": "US", "population": 541346, "coordinates": {"lon": -83.32048, "lat": 41.3845}}, {"name": "Rockingham", "country": "US", "population": 220270, "coordinates": {"lon": -72.48898, "lat": 43.18758}}, {"name": "Lake Montezuma", "country": "US", "population": 123530, "coordinates": {"lon": -111.77793, "lat": 34.63224}}, {"name": "Adelanto", "country": "US", "population": 436080, "coordinates": {"lon": -117.40922, "lat": 34.58277}}, {"name": "Moss Beach", "country": "US", "population": 55685, "coordinates": {"lon": -122.51331, "lat": 37.52744}}, {"name": "Sea Ranch", "country": "US", "population": 1305, "coordinates": {"lon": -123.45445, "lat": 38.71519}},