[{"name": "Ph\u00fa Qu\u1ed1c", "country": "VN", "population": 179480, "coordinates": {"lon": 104.01047, "lat": 10.28715}}, {"name": "Bayt al Faq\u012bh", "country": "YE", "population": 34204, "coordinates": {"lon": 43.32446, "lat": 14.51635}}, {"name": "Saint Lucia Estuary", "country": "ZA", "population": 1104, "coordinates": {"lon": 32.41181, "lat": -28.37622}}, {"name": "Colesberg", "country": "ZA", "population": 12423, "coordinates": {"lon": 25.09718, "lat": -30.71999}}, {"name": "Calvinia", "country": "ZA", "population": 8146, "coordinates": {"lon": 19.77601, "lat": -31.47069}}, {"name": "Mumbwa", "country": "ZM", "population": 19086, "coordinates": {"lon": 27.0619, "lat": -14.98293}}, {"name": "Livingstone", "country": "ZM", "population": 109203, "coordinates": {"lon": 25.85425, "lat": -17.84194}}, {"name": "Chama", "country": "ZM", "population": 4061, "coordinates": {"lon": 33.1521, "lat": -11.21303}}, {"name": "Pingwu County", "country": "CN", "population": 180000, "coordinates": {"lon": 104.52738, "lat": 32.40732}}, {"name": "Almaguer", "country": "CO", "population": 119617, "coordinates": {"lon": -76.85482, "lat": 1.91472}}, {"name": "Diapaga", "country": "BF", "population": 15515, "coordinates": {"lon": 1.78838, "lat": 12.07305}}, {"name": "Boromo", "country": "BF", "population": 20193, "coordinates": {"lon": -2.93006, "lat": 11.74542}}, {"name": "Jucurutu", "country": "BR", "population": 11535, "coordinates": {"lon": -37.02028, "lat": -6.03389}}, {"name": "Tupanciret\u00e3", "country": "BR", "population": 17488, "coordinates": {"lon": -53.83583, "lat": -29.08056}}, {"name": "Te\u00f3filo Otoni", "country": "BR", "population": 101170, "coordinates": {"lon": -41.50528, "lat": -17.8575}}, {"name": "Presidente Epit\u00e1cio", "country": "BR", "population": 38742, "coordinates": {"lon": -52.11556, "lat": -21.76333}}, {"name": "Poxor\u00e9o", "country": "BR", "population": 12475, "coordinates": {"lon": -54.38917, "lat": -15.83722}}, {"name": "Encruzilhada", "country": "BR", "population": 4711, "coordinates": {"lon": -40.90944, "lat": -15.53139}}, {"name": "Caetit\u00e9", "country": "BR", "population": 93155, "coordinates": {"lon": -42.475, "lat": -14.06944}}, {"name": "Bataipor\u00e3", "country": "BR", "population": 7346, "coordinates": {"lon": -53.27111, "lat": -22.29528}}, {"name": "Alvorada", "country": "BR", "population": 10232, "coordinates": {"lon": -49.12472, "lat": -12.48}}, {"name": "Anori", "country": "BR", "population": 8064, "coordinates": {"lon": -61.64417, "lat": -3.77278}}, {"name": "Panbang", "country": "BT", "population": 1360, "coordinates": {"lon": 90.98333, "lat": 26.86667}}, {"name": "Chetwynd", "country": "CA", "population": 2587, "coordinates": {"lon": -121.63627, "lat": 55.69988}}, {"name": "Gimli", "country": "CA", "population": 2246, "coordinates": {"lon": -96.99066, "lat": 50.63362}}, {"name": "Hinton", "country": "CA", "population": 9889, "coordinates": {"lon": -117.58567, "lat": 53.40009}}, {"name": "Invermere", "country": "CA", "population": 3391, "coordinates": {"lon": -116.03538, "lat": 50.51666}}, {"name": "Timmins", "country": "CA", "population": 41788, "coordinates": {"lon": -81.33312, "lat": 48.46686}}, {"name": "Wainwright", "country": "CA", "population": 6270, "coordinates": {"lon": -110.85342, "lat": 52.83482}}, {"name": "Whistler", "country": "CA", "population": 8713, "coordinates": {"lon": -122.95396, "lat": 50.11817}}, {"name": "Trinity Bay North", "country": "CA", "population": 1649, "coordinates": {"lon": -53.0713, "lat": 48.5221}}, {"name": "Impfondo", "country": "CG", "population": 20859, "coordinates": {"lon": 18.05981, "lat": 1.61804}}, {"name": "\u2019A\u00efn el Melh", "country": "DZ", "population": 39798, "coordinates": {"lon": 4.16383, "lat": 34.84146}}, {"name": "Djebilet Rosfa", "country": "DZ", "population": 315818, "coordinates": {"lon": 0.83496, "lat": 34.86375}}, {"name": "Palora", "country": "EC", "population": 6472, "coordinates": {"lon": -77.96516, "lat": -1.70131}}, {"name": "S\u012bd\u012b Bar\u0101n\u012b", "country": "EG", "population": 24271, "coordinates": {"lon": 25.92539, "lat": 31.61166}}, {"name": "Aswan", "country": "EG", "population": 379774, "coordinates": {"lon": 32.89942, "lat": 24.09082}}, {"name": "Al Kh\u0101rjah", "country": "EG", "population": 67700, "coordinates": {"lon": 30.54653, "lat": 25.45101}}, {"name": "Valverde", "country": "ES", "population": 5000, "coordinates": {"lon": -17.91578, "lat": 27.80628}}, {"name": "T\u0113p\u012b", "country": "ET", "population": 24169, "coordinates": {"lon": 35.45, "lat": 7.2}}, {"name": "Mek'ele", "country": "ET", "population": 436910, "coordinates": {"lon": 39.47528, "lat": 13.49667}}, {"name": "G\u0113do", "country": "ET", "population": 7499, "coordinates": {"lon": 37.45, "lat": 9.01667}}, {"name": "Zu\u00e9noula", "country": "CI", "population": 34435, "coordinates": {"lon": -6.05054, "lat": 7.43027}}, {"name": "Sassandra", "country": "CI", "population": 87945, "coordinates": {"lon": -6.08531, "lat": 4.95384}}, {"name": "Abengourou", "country": "CI", "population": 164424, "coordinates": {"lon": -3.49639, "lat": 6.72972}}, {"name": "Puerto Williams", "country": "CL", "population": 1868, "coordinates": {"lon": -67.60963, "lat": -54.93355}}, {"name": "Puerto Cisnes", "country": "CL", "population": 2507, "coordinates": {"lon": -72.69695, "lat": -44.74736}}, {"name": "Yagoua", "country": "CM", "population": 80235, "coordinates": {"lon": 15.23288, "lat": 10.34107}}, {"name": "Rey Bouba", "country": "CM", "population": 11454, "coordinates": {"lon": 14.1786, "lat": 8.6724}}, {"name": "B\u00e9tar\u00e9 Oya", "country": "CM", "population": 11866, "coordinates": {"lon": 14.08333, "lat": 5.6}}, {"name": "Altay", "country": "CN", "population": 190064, "coordinates": {"lon": 88.13361, "lat": 47.84864}}, {"name": "Yulinshi", "country": "CN", "population": 90870, "coordinates": {"lon": 109.73753, "lat": 38.29181}}, {"name": "Yuanping", "country": "CN", "population": 82883, "coordinates": {"lon": 112.7575, "lat": 38.71528}}, {"name": "Xujiang", "country": "CN", "population": 87459, "coordinates": {"lon": 116.32011, "lat": 26.83945}}, {"name": "Wacheng Neighborhood", "country": "CN", "population": 66848, "coordinates": {"lon": 114.51667, "lat": 33.78333}}, {"name": "Mingguang", "country": "CN", "population": 68351, "coordinates": {"lon": 117.96378, "lat": 32.78017}}, {"name": "Dinghaicun", "country": "CN", "population": 146940, "coordinates": {"lon": 119.78964, "lat": 26.28022}}, {"name": "Dengzhou", "country": "CN", "population": 85279, "coordinates": {"lon": 120.75908, "lat": 37.80822}}, {"name": "Langzhong", "country": "CN", "population": 60542, "coordinates": {"lon": 105.99381, "lat": 31.55037}}, {"name": "Tieli", "country": "CN", "population": 109636, "coordinates": {"lon": 128.04804, "lat": 46.97544}}, {"name": "Suiling", "country": "CN", "population": 57124, "coordinates": {"lon": 127.10769, "lat": 47.23489}}, {"name": "Beichengqu", "country": "CN", "population": 72444, "coordinates": {"lon": 113.15361, "lat": 40.43944}}, {"name": "Roesbrugge-Haringe", "country": "BE", "population": 1001, "coordinates": {"lon": 2.62538, "lat": 50.9181}}, {"name": "Lathen", "country": "DE", "population": 194283, "coordinates": {"lon": 7.31667, "lat": 52.86667}}, {"name": "R\u016bdb\u0101r", "country": "AF", "population": 11034, "coordinates": {"lon": 62.6, "lat": 30.15}}, {"name": "Qarah B\u0101gh", "country": "AF", "population": 12412, "coordinates": {"lon": 61.77589, "lat": 34.94023}}, {"name": "Lashkar G\u0101h", "country": "AF", "population": 101101, "coordinates": {"lon": 64.37161, "lat": 31.59382}}, {"name": "Kh\u014dst", "country": "AF", "population": 96123, "coordinates": {"lon": 69.92041, "lat": 33.33951}}, {"name": "L\u00e9ua", "country": "AO", "population": 5168, "coordinates": {"lon": 20.44772, "lat": -11.65753}}, {"name": "Mbanza Kongo", "country": "AO", "population": 24220, "coordinates": {"lon": 14.23833, "lat": -6.26667}}, {"name": "Victorica", "country": "AR", "population": 6565, "coordinates": {"lon": -65.43709, "lat": -36.21654}}, {"name": "R\u00edo Pico", "country": "AR", "population": 1386, "coordinates": {"lon": -71.36847, "lat": -44.17905}}, {"name": "Puerto Madryn", "country": "AR", "population": 64555, "coordinates": {"lon": -65.03827, "lat": -42.76848}}, {"name": "Alderetes", "country": "AR", "population": 38466, "coordinates": {"lon": -65.13333, "lat": -26.81667}}, {"name": "Queenstown", "country": "AU", "population": 1800, "coordinates": {"lon": 145.55646, "lat": -42.0805}}, {"name": "Moama", "country": "AU", "population": 6164, "coordinates": {"lon": 144.7608, "lat": -36.10413}}, {"name": "Bowen", "country": "AU", "population": 11417, "coordinates": {"lon": 148.24754, "lat": -20.01367}}, {"name": "Weno", "country": "FM", "population": 13856, "coordinates": {"lon": 151.84135, "lat": 7.44648}}, {"name": "Wasp\u00e1n", "country": "NI", "population": 6403, "coordinates": {"lon": -83.9717, "lat": 14.74189}}, {"name": "Br\u00f8nn\u00f8ysund", "country": "NO", "population": 5045, "coordinates": {"lon": 12.21285, "lat": 65.47487}}, {"name": "Besisahar", "country": "NP", "population": 5427, "coordinates": {"lon": 84.3775, "lat": 28.23111}}, {"name": "Pilpichaca", "country": "PE", "population": 673, "coordinates": {"lon": -75.00178, "lat": -13.32795}}, {"name": "Mazuko", "country": "PE", "population": 3586, "coordinates": {"lon": -70.36736, "lat": -13.10012}}, {"name": "Guiling", "country": "PH", "population": 425418, "coordinates": {"lon": 120.61513, "lat": 15.84295}}, {"name": "Algeciras", "country": "PH", "population": 4007, "coordinates": {"lon": 120.8168, "lat": 11.4154}}, {"name": "Paso Real de Sarabia", "country": "MX", "population": 87952, "coordinates": {"lon": -95.04667, "lat": 17.07389}}, {"name": "Ejido Benito Ju\u00e1rez", "country": "MX", "population": 5778, "coordinates": {"lon": -106.88362, "lat": 30.14937}}, {"name": "Santa Rosal\u00eda", "country": "MX", "population": 11765, "coordinates": {"lon": -112.26706, "lat": 27.34035}}, {"name": "Grootfontein", "country": "NA", "population": 24099, "coordinates": {"lon": 18.11667, "lat": -19.56667}}, {"name": "Ama", "country": "JP", "population": 2293, "coordinates": {"lon": 133.09159, "lat": 36.09317}}, {"name": "Kazarman", "country": "KG", "population": 11191, "coordinates": {"lon": 74.02828, "lat": 41.40452}}, {"name": "Suong", "country": "KH", "population": 30000, "coordinates": {"lon": 105.65821, "lat": 11.91178}}, {"name": "Paoy Paet", "country": "KH", "population": 79000, "coordinates": {"lon": 102.56365, "lat": 13.65805}}, {"name": "Banlung", "country": "KH", "population": 17000, "coordinates": {"lon": 106.98727, "lat": 13.73939}}, {"name": "Kosong", "country": "KR", "population": 62446, "coordinates": {"lon": 128.4676, "lat": 38.37881}}, {"name": "Miyaly", "country": "KZ", "population": 6213, "coordinates": {"lon": 53.79168, "lat": 48.88548}}, {"name": "Maloye Ganyushkino", "country": "KZ", "population": 8387, "coordinates": {"lon": 49.26667, "lat": 46.6}}, {"name": "Shyngyrlau", "country": "KZ", "population": 6218, "coordinates": {"lon": 54.08412, "lat": 51.09959}}, {"name": "Bautino", "country": "KZ", "population": 3247, "coordinates": {"lon": 50.24629, "lat": 44.54479}}, {"name": "Umirzak", "country": "KZ", "population": 1885, "coordinates": {"lon": 51.24094, "lat": 43.59762}}, {"name": "Urzhar", "country": "KZ", "population": 14826, "coordinates": {"lon": 81.62939, "lat": 47.09302}}, {"name": "Talshik", "country": "KZ", "population": 3111, "coordinates": {"lon": 71.87404, "lat": 53.63736}}, {"name": "Nura", "country": "KZ", "population": 7037, "coordinates": {"lon": 71.54802, "lat": 50.26159}}, {"name": "Muang Ph\u00f4nsavan", "country": "LA", "population": 37507, "coordinates": {"lon": 103.1917, "lat": 19.4494}}, {"name": "Trincomalee", "country": "LK", "population": 108420, "coordinates": {"lon": 81.2289, "lat": 8.5778}}, {"name": "Al Bard\u012byah", "country": "LY", "population": 9149, "coordinates": {"lon": 25.0853, "lat": 31.75601}}, {"name": "Sabh\u0101", "country": "LY", "population": 130000, "coordinates": {"lon": 14.42832, "lat": 27.03766}}, {"name": "Mizdah", "country": "LY", "population": 26107, "coordinates": {"lon": 12.9853, "lat": 31.44934}}, {"name": "Ifrane", "country": "MA", "population": 13000, "coordinates": {"lon": -6.3494, "lat": 31.70217}}, {"name": "Andovoranto", "country": "MG", "population": 10429, "coordinates": {"lon": 49.1094, "lat": -18.95443}}, {"name": "Ambodifotatra", "country": "MG", "population": 11830, "coordinates": {"lon": 49.85, "lat": -16.98333}}, {"name": "Ambalasoa", "country": "MG", "population": 4000, "coordinates": {"lon": 46.0, "lat": -23.11667}}, {"name": "Kidal", "country": "ML", "population": 11643, "coordinates": {"lon": 1.40778, "lat": 18.44111}}, {"name": "Goundam", "country": "ML", "population": 8456, "coordinates": {"lon": -3.67075, "lat": 16.41453}}, {"name": "Tidjikja", "country": "MR", "population": 10906, "coordinates": {"lon": -11.42715, "lat": 18.55644}}, {"name": "Kiffa", "country": "MR", "population": 40281, "coordinates": {"lon": -11.40208, "lat": 16.62073}}, {"name": "Dhihdhoo", "country": "MV", "population": 3039, "coordinates": {"lon": 73.11402, "lat": 6.88744}}, {"name": "Damian Carmona", "country": "MX", "population": 38737, "coordinates": {"lon": -99.29216, "lat": 22.09723}}, {"name": "Lavans-l\u00e8s-Saint-Claude", "country": "FR", "population": 435057, "coordinates": {"lon": 5.78172, "lat": 46.38484}}, {"name": "Augy", "country": "FR", "population": 165248, "coordinates": {"lon": 3.61051, "lat": 47.7664}}, {"name": "Mounana", "country": "GA", "population": 81898, "coordinates": {"lon": 13.15857, "lat": -1.4085}}, {"name": "Belmullet", "country": "IE", "population": 1019, "coordinates": {"lon": -9.99083, "lat": 54.225}}, {"name": "Sabr\u016bm", "country": "IN", "population": 6205, "coordinates": {"lon": 91.72427, "lat": 23.00153}}, {"name": "Gunupur", "country": "IN", "population": 22264, "coordinates": {"lon": 83.80879, "lat": 19.0804}}, {"name": "Dh\u0101rchula", "country": "IN", "population": 7331, "coordinates": {"lon": 80.51951, "lat": 29.84707}}, {"name": "Bh\u0101dra", "country": "IN", "population": 37629, "coordinates": {"lon": 75.17138, "lat": 29.10298}}, {"name": "Amud\u0101lavalasa", "country": "IN", "population": 498791, "coordinates": {"lon": 83.90295, "lat": 18.41025}}, {"name": "All\u0101palli", "country": "IN", "population": 10772, "coordinates": {"lon": 80.06377, "lat": 19.43172}}, {"name": "Mandal\u012b", "country": "IQ", "population": 29785, "coordinates": {"lon": 45.55503, "lat": 33.7481}}, {"name": "Zarand", "country": "IR", "population": 105653, "coordinates": {"lon": 56.56399, "lat": 30.81271}}, {"name": "S\u0101veh", "country": "IR", "population": 175533, "coordinates": {"lon": 50.3566, "lat": 35.0213}}, {"name": "R\u0101mhormoz", "country": "IR", "population": 38821, "coordinates": {"lon": 49.60351, "lat": 31.27997}}, {"name": "Marvdasht", "country": "IR", "population": 148858, "coordinates": {"lon": 52.8025, "lat": 29.8742}}, {"name": "Kh\u0101rk", "country": "IR", "population": 8196, "coordinates": {"lon": 50.33056, "lat": 29.26139}}, {"name": "B\u012brjand", "country": "IR", "population": 196982, "coordinates": {"lon": 59.22114, "lat": 32.86628}}, {"name": "Roccagloriosa", "country": "IT", "population": 212398, "coordinates": {"lon": 15.43642, "lat": 40.10628}}, {"name": "Linden", "country": "GY", "population": 44690, "coordinates": {"lon": -58.30714, "lat": 6.00809}}, {"name": "Beled", "country": "HU", "population": 487919, "coordinates": {"lon": 17.09294, "lat": 47.46594}}, {"name": "Sofifi", "country": "ID", "population": 36197, "coordinates": {"lon": 127.5588, "lat": 0.73729}}, {"name": "Polewali", "country": "ID", "population": 65800, "coordinates": {"lon": 119.3435, "lat": -3.4324}}, {"name": "Muntok", "country": "ID", "population": 26709, "coordinates": {"lon": 105.16228, "lat": -2.06719}}, {"name": "Dompu", "country": "ID", "population": 215127, "coordinates": {"lon": 118.4634, "lat": -8.5365}}, {"name": "Biak", "country": "ID", "population": 4537, "coordinates": {"lon": 136.082, "lat": -1.1767}}, {"name": "Baa", "country": "ID", "population": 1263, "coordinates": {"lon": 123.0492, "lat": -10.7263}}, {"name": "Aasiaat", "country": "GL", "population": 3005, "coordinates": {"lon": -52.86366, "lat": 68.70869}}, {"name": "Gaoual", "country": "GN", "population": 7461, "coordinates": {"lon": -13.2, "lat": 11.75}}, {"name": "Boffa", "country": "GN", "population": 2332, "coordinates": {"lon": -14.03333, "lat": 10.16667}}, {"name": "Garhi Khairo", "country": "PK", "population": 265500, "coordinates": {"lon": 67.98033, "lat": 28.06029}}, {"name": "Kuvandyk", "country": "RU", "population": 468429, "coordinates": {"lon": 57.3552, "lat": 51.4781}}, {"name": "Kresttsy", "country": "RU", "population": 9737, "coordinates": {"lon": 32.51796, "lat": 58.24782}}, {"name": "Dombarovskiy", "country": "RU", "population": 9556, "coordinates": {"lon": 59.5386, "lat": 50.7587}}, {"name": "Alakurtti", "country": "RU", "population": 6293, "coordinates": {"lon": 30.34905, "lat": 66.9672}}, {"name": "Tashanta", "country": "RU", "population": 2000, "coordinates": {"lon": 89.19425, "lat": 49.71573}}, {"name": "Irbeyskoye", "country": "RU", "population": 4681, "coordinates": {"lon": 95.4515, "lat": 55.6396}}, {"name": "Chany", "country": "RU", "population": 8923, "coordinates": {"lon": 76.76468, "lat": 55.31205}}, {"name": "Vidim", "country": "RU", "population": 1415, "coordinates": {"lon": 103.1106, "lat": 56.4088}}, {"name": "Poyarkovo", "country": "RU", "population": 7003, "coordinates": {"lon": 128.65352, "lat": 49.62678}}, {"name": "Lensk", "country": "RU", "population": 23694, "coordinates": {"lon": 114.92778, "lat": 60.72528}}, {"name": "Kazachinskoye", "country": "RU", "population": 2581, "coordinates": {"lon": 107.57624, "lat": 56.26974}}, {"name": "Istok", "country": "RU", "population": 13529, "coordinates": {"lon": 106.2475, "lat": 52.09528}}, {"name": "Gorin", "country": "RU", "population": 3695, "coordinates": {"lon": 136.66216, "lat": 51.19861}}, {"name": "Chernyshevskiy", "country": "RU", "population": 5137, "coordinates": {"lon": 112.46901, "lat": 63.01601}}, {"name": "Bukachacha", "country": "RU", "population": 19604, "coordinates": {"lon": 116.91667, "lat": 52.98333}}, {"name": "Aldan", "country": "RU", "population": 34480, "coordinates": {"lon": 125.39613, "lat": 58.61021}}, {"name": "Ossora", "country": "RU", "population": 2420, "coordinates": {"lon": 163.07034, "lat": 59.24781}}, {"name": "Klyuchi", "country": "RU", "population": 10000, "coordinates": {"lon": 160.84541, "lat": 56.32035}}, {"name": "Cherskiy", "country": "RU", "population": 3707, "coordinates": {"lon": 161.33197, "lat": 68.75325}}, {"name": "Tsiolkovskiy", "country": "RU", "population": 6535, "coordinates": {"lon": 128.11472, "lat": 51.76694}}, {"name": "Wed Alnkil", "country": "SA", "population": 1500, "coordinates": {"lon": 42.8343, "lat": 25.4267}}, {"name": "Sabt Alalayah", "country": "SA", "population": 100000, "coordinates": {"lon": 41.96357, "lat": 19.5773}}, {"name": "Kadugli", "country": "SD", "population": 87666, "coordinates": {"lon": 29.71833, "lat": 11.01111}}, {"name": "B\u0101rah", "country": "SD", "population": 16969, "coordinates": {"lon": 30.36667, "lat": 13.7}}, {"name": "Al \u1e28aw\u0101tah", "country": "SD", "population": 24513, "coordinates": {"lon": 34.63333, "lat": 13.41667}}, {"name": "Kiruna", "country": "SE", "population": 17037, "coordinates": {"lon": 20.22513, "lat": 67.85572}}, {"name": "Kolda", "country": "SN", "population": 58809, "coordinates": {"lon": -14.94125, "lat": 12.8939}}, {"name": "Beledweyne", "country": "SO", "population": 55410, "coordinates": {"lon": 45.20361, "lat": 4.73583}}, {"name": "That Phanom", "country": "TH", "population": 14424, "coordinates": {"lon": 104.71039, "lat": 16.93636}}, {"name": "Phon Charoen", "country": "TH", "population": 15208, "coordinates": {"lon": 103.16667, "lat": 18.03333}}, {"name": "Bo\u011faz\u00f6ren", "country": "TR", "population": 132983, "coordinates": {"lon": 43.00892, "lat": 37.52749}}, {"name": "Scarborough", "country": "TT", "population": 17000, "coordinates": {"lon": -60.73525, "lat": 11.18229}}, {"name": "Capit\u00e1n Bado", "country": "PY", "population": 9114, "coordinates": {"lon": -55.53876, "lat": -23.26733}}, {"name": "Cando", "country": "US", "population": 1122, "coordinates": {"lon": -99.20986, "lat": 48.48667}}, {"name": "Langdon", "country": "US", "population": 1787, "coordinates": {"lon": -98.36817, "lat": 48.76}}, {"name": "Salton City", "country": "US", "population": 3763, "coordinates": {"lon": -115.95611, "lat": 33.29865}}, {"name": "Caliente", "country": "US", "population": 1109, "coordinates": {"lon": -114.51194, "lat": 37.61496}}, {"name": "Milford", "country": "US", "population": 1331, "coordinates": {"lon": -113.01079, "lat": 38.39691}}, {"name": "Wrangell", "country": "US", "population": 2382, "coordinates": {"lon": -132.37667, "lat": 56.47083}}, {"name": "Lakeview", "country": "US", "population": 2296, "coordinates": {"lon": -120.34579, "lat": 42.18877}}, {"name": "Douglas", "country": "US", "population": 6531, "coordinates": {"lon": -105.38221, "lat": 42.75969}}, {"name": "Laramie", "country": "US", "population": 32158, "coordinates": {"lon": -105.5911, "lat": 41.31137}}, {"name": "M\u016dynoq", "country": "UZ", "population": 13500, "coordinates": {"lon": 59.02139, "lat": 43.76833}}, {"name": "Machiques", "country": "VE", "population": 89119, "coordinates": {"lon": -72.55212, "lat": 10.06077}}, {"name": "Elorza", "country": "VE", "population": 27795, "coordinates": {"lon": -69.49765, "lat": 7.06088}}, {"name": "Chichiriviche", "country": "VE", "population": 66444, "coordinates": {"lon": -68.27283, "lat": 10.92872}}, {"name": "S\u01a1n La", "country": "VN", "population": 19054, "coordinates": {"lon": 103.91882, "lat": 21.3256}}, {"name": "Hu\u1ebf", "country": "VN", "population": 351456, "coordinates": {"lon": 107.59546, "lat": 16.4619}}, {"name": "C\u00e0 Mau", "country": "VN", "population": 111894, "coordinates": {"lon": 105.15242, "lat": 9.17682}}, {"name": "Kotlovyna", "country": "UA", "population": 254787, "coordinates": {"lon": 28.57438, "lat": 45.50692}}, {"name": "Boikivshchyna", "country": "UA", "population": 212838, "coordinates": {"lon": 32.25007, "lat": 49.91035}}, {"name": "Adjumani", "country": "UG", "population": 28700, "coordinates": {"lon": 31.7909, "lat": 3.37786}}, {"name": "Ves\u2019yegonsk", "country": "RU", "population": 8200, "coordinates": {"lon": 37.26365, "lat": 58.66769}}, {"name": "Sirari", "country": "TZ", "population": 24317, "coordinates": {"lon": 34.47596, "lat": -1.25367}}, {"name": "Kibaya", "country": "TZ", "population": 5028, "coordinates": {"lon": 36.56667, "lat": -5.3}}, {"name": "Karema", "country": "TZ", "population": 12630, "coordinates": {"lon": 30.43887, "lat": -6.82052}}, {"name": "Kj\u00f8llefjord", "country": "NO", "population": 2630, "coordinates": {"lon": 27.3465, "lat": 70.94574}}, {"name": "Gaur", "country": "NP", "population": 164949, "coordinates": {"lon": 85.27841, "lat": 26.76448}}, {"name": "Putina", "country": "PE", "population": 8118, "coordinates": {"lon": -69.43292, "lat": -15.4764}}, {"name": "Mount Hagen", "country": "PG", "population": 33623, "coordinates": {"lon": 144.23058, "lat": -5.85746}}, {"name": "Kokoda", "country": "PG", "population": 6199, "coordinates": {"lon": 147.73642, "lat": -8.87778}}, {"name": "Pogar", "country": "RU", "population": 11242, "coordinates": {"lon": 33.25961, "lat": 52.55287}}, {"name": "Staryye Ozinki", "country": "RU", "population": 9733, "coordinates": {"lon": 49.6769, "lat": 51.1786}}, {"name": "Kovdor", "country": "RU", "population": 19518, "coordinates": {"lon": 30.47576, "lat": 67.56616}}, {"name": "Ber\u00ebznik", "country": "RU", "population": 6218, "coordinates": {"lon": 42.7071, "lat": 62.852}}, {"name": "Vengerovo", "country": "RU", "population": 7073, "coordinates": {"lon": 76.74707, "lat": 55.68485}}, {"name": "Ust\u2019-Ishim", "country": "RU", "population": 4999, "coordinates": {"lon": 71.1665, "lat": 57.6935}}, {"name": "Shadrinsk", "country": "RU", "population": 79479, "coordinates": {"lon": 63.6335, "lat": 56.0852}}, {"name": "Inya", "country": "RU", "population": 2000, "coordinates": {"lon": 86.62667, "lat": 50.45611}}, {"name": "Igrim", "country": "RU", "population": 9545, "coordinates": {"lon": 64.4162, "lat": 63.1906}}, {"name": "Bor", "country": "RU", "population": 2300, "coordinates": {"lon": 90.01806, "lat": 61.60111}}, {"name": "Askiz", "country": "RU", "population": 4977, "coordinates": {"lon": 90.42833, "lat": 53.13722}}, {"name": "Gubkinskiy", "country": "RU", "population": 20463, "coordinates": {"lon": 76.50261, "lat": 64.434}}, {"name": "Yerofey Pavlovich", "country": "RU", "population": 5409, "coordinates": {"lon": 121.95805, "lat": 53.96305}}, {"name": "Ust\u2019-Uda", "country": "RU", "population": 5169, "coordinates": {"lon": 103.0304, "lat": 54.1742}}, {"name": "Okino-Klyuchi", "country": "RU", "population": 1100, "coordinates": {"lon": 107.10944, "lat": 50.59389}}, {"name": "Khandyga", "country": "RU", "population": 6796, "coordinates": {"lon": 135.5667, "lat": 62.65333}}, {"name": "Borogontsy", "country": "RU", "population": 5280, "coordinates": {"lon": 131.16344, "lat": 62.6706}}, {"name": "Bayanday", "country": "RU", "population": 2854, "coordinates": {"lon": 105.51389, "lat": 53.06611}}, {"name": "Amga", "country": "RU", "population": 6151, "coordinates": {"lon": 131.97882, "lat": 60.90009}}, {"name": "Kholodnyy", "country": "RU", "population": 1247, "coordinates": {"lon": 147.91361, "lat": 62.71333}}, {"name": "Abqaiq", "country": "SA", "population": 29474, "coordinates": {"lon": 49.6688, "lat": 25.93402}}, {"name": "Badr \u1e28unayn", "country": "SA", "population": 27257, "coordinates": {"lon": 38.79047, "lat": 23.78292}}, {"name": "Al Muwayh", "country": "SA", "population": 7364, "coordinates": {"lon": 41.75829, "lat": 22.43333}}, {"name": "Str\u00f6msund", "country": "SE", "population": 3690, "coordinates": {"lon": 15.55583, "lat": 63.85206}}, {"name": "Jokkmokk", "country": "SE", "population": 2794, "coordinates": {"lon": 19.82324, "lat": 66.60665}}, {"name": "Bonthe", "country": "SL", "population": 10206, "coordinates": {"lon": -12.505, "lat": 7.52639}}, {"name": "Saacow", "country": "SO", "population": 7893, "coordinates": {"lon": 42.44067, "lat": 1.62794}}, {"name": "Kismayo", "country": "SO", "population": 234852, "coordinates": {"lon": 42.54536, "lat": -0.35817}}, {"name": "Pala", "country": "TD", "population": 35466, "coordinates": {"lon": 14.90725, "lat": 9.3646}}, {"name": "Massakory", "country": "TD", "population": 15406, "coordinates": {"lon": 15.73195, "lat": 12.99809}}, {"name": "Atakpam\u00e9", "country": "TG", "population": 114553, "coordinates": {"lon": 1.13333, "lat": 7.53333}}, {"name": "Lospalos", "country": "TL", "population": 17186, "coordinates": {"lon": 126.99833, "lat": -8.52167}}, {"name": "Novi Pazar", "country": "RS", "population": 89709, "coordinates": {"lon": 20.51222, "lat": 43.13667}}, {"name": "Vuktyl", "country": "RU", "population": 13693, "coordinates": {"lon": 57.30944, "lat": 63.85667}}, {"name": "Verblyany", "country": "UA", "population": 2000, "coordinates": {"lon": 23.42189, "lat": 50.04747}}, {"name": "Hackleburg", "country": "US", "population": 42633, "coordinates": {"lon": -87.82864, "lat": 34.27732}}, {"name": "Kinsey", "country": "US", "population": 159832, "coordinates": {"lon": -85.34438, "lat": 31.29906}}, {"name": "Leesburg", "country": "US", "population": 89736, "coordinates": {"lon": -85.76136, "lat": 34.17982}}, {"name": "Lake Placid", "country": "US", "population": 2164, "coordinates": {"lon": -81.32631, "lat": 27.35197}}, {"name": "Poinciana", "country": "US", "population": 53193, "coordinates": {"lon": -81.45841, "lat": 28.14029}}, {"name": "Mount Airy", "country": "US", "population": 61906, "coordinates": {"lon": -80.60729, "lat": 36.4993}}, {"name": "Rockingham", "country": "US", "population": 123110, "coordinates": {"lon": -79.77395, "lat": 34.93932}}, {"name": "Ba\u015fkale", "country": "TR", "population": 14516, "coordinates": {"lon": 44.01718, "lat": 38.04526}}, {"name": "Longido", "country": "TZ", "population": 9403, "coordinates": {"lon": 36.69773, "lat": -2.73319}}, {"name": "Kilimatinde", "country": "TZ", "population": 5975, "coordinates": {"lon": 34.95, "lat": -5.85}}, {"name": "Izazi", "country": "TZ", "population": 18010, "coordinates": {"lon": 35.73333, "lat": -7.2}}, {"name": "Fatehpur", "country": "PK", "population": 218683, "coordinates": {"lon": 71.2048, "lat": 31.17772}}, {"name": "Barishal", "country": "PK", "population": 2005, "coordinates": {"lon": 74.69502, "lat": 36.32162}}, {"name": "Czarna", "country": "PL", "population": 792, "coordinates": {"lon": 22.65896, "lat": 49.33116}}, {"name": "Rog\u00f3\u017ano", "country": "PL", "population": 283786, "coordinates": {"lon": 18.92859, "lat": 53.53587}}, {"name": "Kashitashi", "country": "CN", "population": 6099, "coordinates": {"lon": 79.91459, "lat": 36.30431}}, {"name": "Tarapac\u00e1", "country": "CO", "population": 3100, "coordinates": {"lon": -69.742, "lat": -2.892}}, {"name": "Nuqu\u00ed", "country": "CO", "population": 2741, "coordinates": {"lon": -77.27083, "lat": 5.7125}}, {"name": "Cumaribo", "country": "CO", "population": 23990, "coordinates": {"lon": -69.79897, "lat": 4.44552}}, {"name": "Flying Fish Cove", "country": "CX", "population": 500, "coordinates": {"lon": 105.67912, "lat": -10.42172}}, {"name": "Horn\u00ed B\u0159\u00edza", "country": "CZ", "population": 473890, "coordinates": {"lon": 13.35558, "lat": 49.84012}}, {"name": "D\u00e9dougou", "country": "BF", "population": 63617, "coordinates": {"lon": -3.46075, "lat": 12.46338}}, {"name": "Dano", "country": "BF", "population": 25922, "coordinates": {"lon": -3.05784, "lat": 11.1464}}, {"name": "Santa Ana de Yacuma", "country": "BO", "population": 12783, "coordinates": {"lon": -65.42688, "lat": -13.74406}}, {"name": "Santa Maria da Vit\u00f3ria", "country": "BR", "population": 23488, "coordinates": {"lon": -44.19868, "lat": -13.38814}}, {"name": "Palmeira das Miss\u00f5es", "country": "BR", "population": 151398, "coordinates": {"lon": -53.31361, "lat": -27.89944}}, {"name": "Lad\u00e1rio", "country": "BR", "population": 15790, "coordinates": {"lon": -57.60167, "lat": -19.00472}}, {"name": "Itaqui", "country": "BR", "population": 34631, "coordinates": {"lon": -56.55306, "lat": -29.12528}}, {"name": "Goian\u00e9sia", "country": "BR", "population": 47883, "coordinates": {"lon": -49.1175, "lat": -15.3175}}, {"name": "Erechim", "country": "BR", "population": 96087, "coordinates": {"lon": -52.2754, "lat": -27.63461}}, {"name": "Curvelo", "country": "BR", "population": 63954, "coordinates": {"lon": -44.43083, "lat": -18.75639}}, {"name": "Coxim", "country": "BR", "population": 30215, "coordinates": {"lon": -54.76, "lat": -18.50667}}, {"name": "Concei\u00e7\u00e3o da Barra", "country": "BR", "population": 19309, "coordinates": {"lon": -39.73222, "lat": -18.59333}}, {"name": "Capim Grosso", "country": "BR", "population": 17322, "coordinates": {"lon": -40.01278, "lat": -11.38111}}, {"name": "S\u00e3o Gabriel da Cachoeira", "country": "BR", "population": 15231, "coordinates": {"lon": -67.08527, "lat": -0.1181}}, {"name": "Xinguara", "country": "BR", "population": 43530, "coordinates": {"lon": -49.9435, "lat": -7.09829}}, {"name": "Mopipi", "country": "BW", "population": 3301, "coordinates": {"lon": 24.88333, "lat": -21.18333}}, {"name": "Khakhea", "country": "BW", "population": 2133, "coordinates": {"lon": 23.49403, "lat": -24.68954}}, {"name": "San Pedro", "country": "BZ", "population": 86348, "coordinates": {"lon": -87.9659, "lat": 17.91598}}, {"name": "Happy Valley-Goose Bay", "country": "CA", "population": 7572, "coordinates": {"lon": -60.32576, "lat": 53.3038}}, {"name": "Iqaluit", "country": "CA", "population": 7429, "coordinates": {"lon": -68.51727, "lat": 63.74697}}, {"name": "Vanderhoof", "country": "CA", "population": 1462, "coordinates": {"lon": -124.01982, "lat": 54.01657}}, {"name": "Wawa", "country": "CA", "population": 2905, "coordinates": {"lon": -84.77411, "lat": 47.98877}}, {"name": "Tofino", "country": "CA", "population": 1932, "coordinates": {"lon": -125.90744, "lat": 49.15314}}, {"name": "Lusambo", "country": "CD", "population": 41416, "coordinates": {"lon": 23.44391, "lat": -4.97503}}, {"name": "Kindu", "country": "CD", "population": 135698, "coordinates": {"lon": 25.92237, "lat": -2.94373}}, {"name": "Kananga", "country": "CD", "population": 463546, "coordinates": {"lon": 22.41659, "lat": -5.89624}}, {"name": "Kambove", "country": "CD", "population": 36702, "coordinates": {"lon": 26.59746, "lat": -10.87352}}, {"name": "Mushie", "country": "CD", "population": 33062, "coordinates": {"lon": 16.92238, "lat": -3.01728}}, {"name": "Moanda", "country": "CD", "population": 50000, "coordinates": {"lon": 12.37148, "lat": -5.92753}}, {"name": "Kemb\u00e9", "country": "CF", "population": 20849, "coordinates": {"lon": 21.88645, "lat": 4.62275}}, {"name": "Bimbo", "country": "CF", "population": 129655, "coordinates": {"lon": 18.41583, "lat": 4.25671}}, {"name": "San-P\u00e9dro", "country": "CI", "population": 390654, "coordinates": {"lon": -6.6363, "lat": 4.74851}}, {"name": "Mankono", "country": "CI", "population": 19095, "coordinates": {"lon": -6.18972, "lat": 8.05861}}, {"name": "Korhogo", "country": "CI", "population": 440926, "coordinates": {"lon": -5.62961, "lat": 9.45803}}, {"name": "Guiglo", "country": "CI", "population": 39134, "coordinates": {"lon": -7.4935, "lat": 6.54368}}, {"name": "S\u00e9gu\u00e9la", "country": "CI", "population": 103980, "coordinates": {"lon": -6.67306, "lat": 7.96111}}, {"name": "Ala\u00efli \u1e0ea\u1e0f\u1e0fa\u2018", "country": "DJ", "population": 1456, "coordinates": {"lon": 42.89556, "lat": 12.42167}}, {"name": "A\u00efn Sefra", "country": "DZ", "population": 63420, "coordinates": {"lon": -0.58333, "lat": 32.75}}, {"name": "Adrar", "country": "DZ", "population": 43903, "coordinates": {"lon": -0.29388, "lat": 27.87429}}, {"name": "Puerto Francisco de Orellana", "country": "EC", "population": 48144, "coordinates": {"lon": -76.98719, "lat": -0.46645}}, {"name": "Orissaare", "country": "EE", "population": 1065, "coordinates": {"lon": 23.08262, "lat": 58.55917}}, {"name": "Arish", "country": "EG", "population": 199243, "coordinates": {"lon": 33.79844, "lat": 31.13159}}, {"name": "Teseney", "country": "ER", "population": 3753, "coordinates": {"lon": 36.6575, "lat": 15.11}}, {"name": "Metah\u0101ra", "country": "ET", "population": 23403, "coordinates": {"lon": 39.91667, "lat": 8.9}}, {"name": "Dabat", "country": "ET", "population": 11544, "coordinates": {"lon": 37.765, "lat": 12.98417}}, {"name": "Axum", "country": "ET", "population": 41249, "coordinates": {"lon": 38.72337, "lat": 14.12109}}, {"name": "Seilhac", "country": "FR", "population": 140704, "coordinates": {"lon": 1.7135, "lat": 45.36709}}, {"name": "Le Monastier-sur-Gazeille", "country": "FR", "population": 1835, "coordinates": {"lon": 4.0, "lat": 44.93333}}, {"name": "Cocobeach", "country": "GA", "population": 1653, "coordinates": {"lon": 9.58229, "lat": 1.00019}}, {"name": "Boou\u00e9", "country": "GA", "population": 5787, "coordinates": {"lon": 11.93846, "lat": -0.09207}}, {"name": "Bitam", "country": "GA", "population": 10297, "coordinates": {"lon": 11.50065, "lat": 2.07597}}, {"name": "Stornoway", "country": "GB", "population": 7500, "coordinates": {"lon": -6.38649, "lat": 58.20925}}, {"name": "Palena", "country": "CL", "population": 1690, "coordinates": {"lon": -71.80434, "lat": -43.61876}}, {"name": "La Tirana", "country": "CL", "population": 1529, "coordinates": {"lon": -69.65671, "lat": -20.33552}}, {"name": "Tchollir\u00e9", "country": "CM", "population": 23187, "coordinates": {"lon": 14.1698, "lat": 8.4022}}, {"name": "Mamfe", "country": "CM", "population": 19472, "coordinates": {"lon": 9.3137, "lat": 5.75132}}, {"name": "Kribi", "country": "CM", "population": 55224, "coordinates": {"lon": 9.90765, "lat": 2.93725}}, {"name": "Akom II", "country": "CM", "population": 9709, "coordinates": {"lon": 10.56667, "lat": 2.78333}}, {"name": "Yingpan", "country": "CN", "population": 37406, "coordinates": {"lon": 99.15, "lat": 26.45}}, {"name": "Wendong", "country": "CN", "population": 280257, "coordinates": {"lon": 99.9, "lat": 23.16667}}, {"name": "Qamdo", "country": "CN", "population": 86280, "coordinates": {"lon": 97.17982, "lat": 31.1304}}, {"name": "Fuding", "country": "CN", "population": 192352, "coordinates": {"lon": 120.21399, "lat": 27.32734}}, {"name": "Mengcheng Chengguanzhen", "country": "CN", "population": 69916, "coordinates": {"lon": 116.56605, "lat": 33.26611}}, {"name": "Juye", "country": "CN", "population": 58107, "coordinates": {"lon": 116.07168, "lat": 35.38737}}, {"name": "Hancheng", "country": "CN", "population": 58049, "coordinates": {"lon": 110.42917, "lat": 35.46028}}, {"name": "Ehen Hudag", "country": "CN", "population": 16798, "coordinates": {"lon": 101.66898, "lat": 39.21074}}, {"name": "Dongcun", "country": "CN", "population": 92282, "coordinates": {"lon": 121.15972, "lat": 36.77667}}, {"name": "Bei\u2019an", "country": "CN", "population": 436444, "coordinates": {"lon": 126.6, "lat": 48.26667}}, {"name": "Victoria", "country": "GD", "population": 19251, "coordinates": {"lon": -61.70677, "lat": 12.19021}}, {"name": "Wa", "country": "GH", "population": 78107, "coordinates": {"lon": -2.50192, "lat": 10.06069}}, {"name": "Kintampo", "country": "GH", "population": 47185, "coordinates": {"lon": -1.73058, "lat": 8.05627}}, {"name": "Gibraltar", "country": "GI", "population": 26544, "coordinates": {"lon": -5.35257, "lat": 36.14474}}, {"name": "Siguirini", "country": "GN", "population": 2054, "coordinates": {"lon": -10.04548, "lat": 11.8288}}, {"name": "Ivalo", "country": "FI", "population": 3998, "coordinates": {"lon": 27.53891, "lat": 68.65986}}, {"name": "Himanka", "country": "FI", "population": 93359, "coordinates": {"lon": 23.65447, "lat": 64.06218}}, {"name": "Mount Buller", "country": "AU", "population": 9987, "coordinates": {"lon": 146.43694, "lat": -37.14595}}, {"name": "Rainbow Beach", "country": "AU", "population": 27945, "coordinates": {"lon": 153.09174, "lat": -25.90432}}, {"name": "Saint Andrews Beach", "country": "AU", "population": 1138, "coordinates": {"lon": 144.82436, "lat": -38.4141}}, {"name": "Mariehamn", "country": "AX", "population": 24351, "coordinates": {"lon": 19.93481, "lat": 60.09726}}, {"name": "Goris", "country": "AM", "population": 88545, "coordinates": {"lon": 46.34168, "lat": 39.51111}}, {"name": "Lincoln", "country": "AR", "population": 41808, "coordinates": {"lon": -61.5302, "lat": -34.86649}}, {"name": "Campo Gallo", "country": "AR", "population": 5455, "coordinates": {"lon": -62.85, "lat": -26.58333}}, {"name": "Port Lincoln", "country": "AU", "population": 13810, "coordinates": {"lon": 135.87442, "lat": -34.72625}}, {"name": "Peterborough", "country": "AU", "population": 4648, "coordinates": {"lon": 138.84073, "lat": -32.97205}}, {"name": "Merredin", "country": "AU", "population": 2851, "coordinates": {"lon": 118.27448, "lat": -31.48094}}, {"name": "Alyangula", "country": "AU", "population": 1191, "coordinates": {"lon": 136.42129, "lat": -13.85413}}, {"name": "Stawell", "country": "AU", "population": 15703, "coordinates": {"lon": 142.78088, "lat": -37.05632}}, {"name": "Donald", "country": "AU", "population": 1469, "coordinates": {"lon": 142.98106, "lat": -36.36864}}, {"name": "Cloncurry", "country": "AU", "population": 3810, "coordinates": {"lon": 140.51303, "lat": -20.70718}}, {"name": "El Cuyo", "country": "MX", "population": 1567, "coordinates": {"lon": -87.67878, "lat": 21.51568}}, {"name": "Sonoita", "country": "MX", "population": 12849, "coordinates": {"lon": -112.85129, "lat": 31.86165}}, {"name": "Pueblo Viejo", "country": "MX", "population": 333665, "coordinates": {"lon": -108.41581, "lat": 25.61413}}, {"name": "Chapa", "country": "MX", "population": 309995, "coordinates": {"lon": -101.66556, "lat": 19.37976}}, {"name": "Estaci\u00f3n Obispo", "country": "MX", "population": 94896, "coordinates": {"lon": -107.15944, "lat": 24.29306}}, {"name": "El Triunfo 1ra. Secci\u00f3n (Cardona)", "country": "MX", "population": 164993, "coordinates": {"lon": -93.23306, "lat": 17.60778}}, {"name": "Nacala", "country": "MZ", "population": 225034, "coordinates": {"lon": 40.68538, "lat": -14.56257}}, {"name": "Tses", "country": "NA", "population": 2000, "coordinates": {"lon": 18.12469, "lat": -25.88489}}, {"name": "Oranjemund", "country": "NA", "population": 8496, "coordinates": {"lon": 16.42728, "lat": -28.55153}}, {"name": "Madaoua", "country": "NE", "population": 40905, "coordinates": {"lon": 5.96, "lat": 14.073}}, {"name": "Kingston", "country": "NF", "population": 880, "coordinates": {"lon": 167.96628, "lat": -29.05459}}, {"name": "Rukban", "country": "JO", "population": 85000, "coordinates": {"lon": 38.70342, "lat": 33.31405}}, {"name": "Mtito Andei", "country": "KE", "population": 4763, "coordinates": {"lon": 38.16687, "lat": -2.68987}}, {"name": "Cholpon-Ata", "country": "KG", "population": 14237, "coordinates": {"lon": 77.08225, "lat": 42.64944}}, {"name": "Battambang", "country": "KH", "population": 119251, "coordinates": {"lon": 103.19822, "lat": 13.10271}}, {"name": "Makin Village", "country": "KI", "population": 1834, "coordinates": {"lon": 172.98352, "lat": 3.3644}}, {"name": "Akkol\u2019", "country": "KZ", "population": 4245, "coordinates": {"lon": 53.18177, "lat": 48.77358}}, {"name": "Yrghyz", "country": "KZ", "population": 4673, "coordinates": {"lon": 61.26067, "lat": 48.61958}}, {"name": "Mynaral", "country": "KZ", "population": 1303, "coordinates": {"lon": 73.65453, "lat": 45.44344}}, {"name": "Ridder", "country": "KZ", "population": 52664, "coordinates": {"lon": 83.51562, "lat": 50.34524}}, {"name": "Pakxan", "country": "LA", "population": 21967, "coordinates": {"lon": 103.6611, "lat": 18.3942}}, {"name": "Midelt", "country": "MA", "population": 45159, "coordinates": {"lon": -4.74512, "lat": 32.6852}}, {"name": "Morondava", "country": "MG", "population": 53510, "coordinates": {"lon": 44.31782, "lat": -20.28869}}, {"name": "Kili", "country": "MH", "population": 602, "coordinates": {"lon": 169.12109, "lat": 5.64387}}, {"name": "Kinmparana", "country": "ML", "population": 6014, "coordinates": {"lon": -4.9245, "lat": 12.84217}}, {"name": "Hovd", "country": "MN", "population": 27924, "coordinates": {"lon": 102.17491, "lat": 44.67024}}, {"name": "Mitzpe Ramon", "country": "IL", "population": 5211, "coordinates": {"lon": 34.80111, "lat": 30.60944}}, {"name": "S\u0101itlaw", "country": "IN", "population": 62811, "coordinates": {"lon": 92.57454, "lat": 23.97187}}, {"name": "Robertsganj", "country": "IN", "population": 411237, "coordinates": {"lon": 83.06784, "lat": 24.6886}}, {"name": "P\u0101sigh\u0101t", "country": "IN", "population": 25581, "coordinates": {"lon": 95.32678, "lat": 28.06631}}, {"name": "Padam", "country": "IN", "population": 25000, "coordinates": {"lon": 76.88488, "lat": 33.46659}}, {"name": "Dhekiajuli", "country": "IN", "population": 199899, "coordinates": {"lon": 92.47808, "lat": 26.70367}}, {"name": "Chakia", "country": "IN", "population": 14999, "coordinates": {"lon": 83.22155, "lat": 25.04891}}, {"name": "Ankleshwar", "country": "IN", "population": 345619, "coordinates": {"lon": 72.99001, "lat": 21.63236}}, {"name": "\u012al\u0101m", "country": "IR", "population": 140940, "coordinates": {"lon": 46.4227, "lat": 33.6374}}, {"name": "D\u0101mgh\u0101n", "country": "IR", "population": 67694, "coordinates": {"lon": 54.34292, "lat": 36.1679}}, {"name": "Tissi", "country": "IT", "population": 292628, "coordinates": {"lon": 8.56127, "lat": 40.67832}}, {"name": "Monteleone Sabino", "country": "IT", "population": 316790, "coordinates": {"lon": 12.85828, "lat": 42.23267}}, {"name": "Waingapu", "country": "ID", "population": 35932, "coordinates": {"lon": 120.2641, "lat": -9.6567}}, {"name": "Ternate", "country": "ID", "population": 205001, "coordinates": {"lon": 127.38424, "lat": 0.79065}}, {"name": "Tanjung Balai", "country": "ID", "population": 48953, "coordinates": {"lon": 103.42186, "lat": 1.00005}}, {"name": "Mendaha", "country": "ID", "population": 56268, "coordinates": {"lon": 103.59331, "lat": -1.0163}}, {"name": "Kendari", "country": "ID", "population": 345107, "coordinates": {"lon": 122.51507, "lat": -3.9778}}, {"name": "Masohi", "country": "ID", "population": 36433, "coordinates": {"lon": 128.96882, "lat": -3.29833}}, {"name": "Harvey", "country": "US", "population": 1779, "coordinates": {"lon": -99.9354, "lat": 47.76972}}, {"name": "Burwell", "country": "US", "population": 1211, "coordinates": {"lon": -99.13315, "lat": 41.78167}}, {"name": "Lehighton", "country": "US", "population": 64074, "coordinates": {"lon": -75.7138, "lat": 40.8337}}, {"name": "Gettysburg", "country": "US", "population": 1164, "coordinates": {"lon": -99.95567, "lat": 45.01165}}, {"name": "Sisseton", "country": "US", "population": 2450, "coordinates": {"lon": -97.0498, "lat": 45.66468}}, {"name": "Parker", "country": "US", "population": 61969, "coordinates": {"lon": -114.28912, "lat": 34.15002}}, {"name": "Lamesa", "country": "US", "population": 9427, "coordinates": {"lon": -101.95099, "lat": 32.7376}}, {"name": "Beaver", "country": "US", "population": 3007, "coordinates": {"lon": -112.64105, "lat": 38.27691}}, {"name": "Hines", "country": "US", "population": 1525, "coordinates": {"lon": -119.08105, "lat": 43.56404}}, {"name": "Joseph", "country": "US", "population": 1063, "coordinates": {"lon": -117.22961, "lat": 45.35432}}, {"name": "Rapid City", "country": "US", "population": 107382, "coordinates": {"lon": -103.23101, "lat": 44.08054}}, {"name": "Newcastle", "country": "US", "population": 3534, "coordinates": {"lon": -104.20494, "lat": 43.8547}}, {"name": "Dillingham", "country": "US", "population": 2404, "coordinates": {"lon": -158.4575, "lat": 59.03972}}, {"name": "Zab\u012bd", "country": "YE", "population": 52590, "coordinates": {"lon": 43.31518, "lat": 14.1951}}, {"name": "A\u1e11 \u1e10\u0101li\u2018", "country": "YE", "population": 14760, "coordinates": {"lon": 44.73137, "lat": 13.69572}}, {"name": "Al Madakisha", "country": "YE", "population": 5000, "coordinates": {"lon": 44.40565, "lat": 13.23663}}, {"name": "Belfast", "country": "ZA", "population": 11916, "coordinates": {"lon": 30.03504, "lat": -25.68991}}, {"name": "Mufumbwe", "country": "ZM", "population": 6155, "coordinates": {"lon": 24.8, "lat": -13.68333}}, {"name": "Gwanda", "country": "ZW", "population": 26700, "coordinates": {"lon": 29.00698, "lat": -20.93622}}, {"name": "Chipinge", "country": "ZW", "population": 34959, "coordinates": {"lon": 32.62365, "lat": -20.18833}}, {"name": "Ca' Tiepolo", "country": "IT", "population": 43134, "coordinates": {"lon": 12.33917, "lat": 44.94861}}, {"name": "Saint Helier", "country": "JE", "population": 28000, "coordinates": {"lon": -2.10491, "lat": 49.18804}}, {"name": "Sukumo", "country": "JP", "population": 19292, "coordinates": {"lon": 132.73333, "lat": 32.93333}}, {"name": "Kyzyl-Bulak", "country": "KG", "population": 100928, "coordinates": {"lon": 71.73726, "lat": 40.0517}}, {"name": "Krong Kep", "country": "KH", "population": 11658, "coordinates": {"lon": 104.31672, "lat": 10.48291}}, {"name": "Kampong Chhnang", "country": "KH", "population": 75244, "coordinates": {"lon": 104.66667, "lat": 12.25}}, {"name": "Koksan-\u016dp", "country": "KP", "population": 12923, "coordinates": {"lon": 126.66639, "lat": 38.78194}}, {"name": "Kanggye", "country": "KP", "population": 339026, "coordinates": {"lon": 126.58523, "lat": 40.96946}}, {"name": "Khromtau", "country": "KZ", "population": 23715, "coordinates": {"lon": 58.43574, "lat": 50.25161}}, {"name": "Mayqayyng", "country": "KZ", "population": 7695, "coordinates": {"lon": 75.80232, "lat": 51.45981}}, {"name": "Thakh\u00e8k", "country": "LA", "population": 85000, "coordinates": {"lon": 104.83068, "lat": 17.41027}}, {"name": "Luang Prabang", "country": "LA", "population": 47378, "coordinates": {"lon": 102.1525, "lat": 19.8933}}, {"name": "Greenville", "country": "LR", "population": 16434, "coordinates": {"lon": -9.0388, "lat": 5.01133}}, {"name": "Palanga", "country": "LT", "population": 253522, "coordinates": {"lon": 21.06861, "lat": 55.9175}}, {"name": "Sirte", "country": "LY", "population": 128123, "coordinates": {"lon": 16.58866, "lat": 31.20892}}, {"name": "Errachidia", "country": "MA", "population": 92374, "coordinates": {"lon": -4.42663, "lat": 31.9314}}, {"name": "Nosy Varika", "country": "MG", "population": 37152, "coordinates": {"lon": 48.53333, "lat": -20.58333}}, {"name": "Maevatanana", "country": "MG", "population": 25928, "coordinates": {"lon": 46.83333, "lat": -16.95}}, {"name": "Ampasimanolotra", "country": "MG", "population": 21000, "coordinates": {"lon": 49.06667, "lat": -18.81667}}, {"name": "Lashio", "country": "MM", "population": 131016, "coordinates": {"lon": 97.7498, "lat": 22.9359}}, {"name": "Hakha", "country": "MM", "population": 20000, "coordinates": {"lon": 93.61076, "lat": 22.64452}}, {"name": "Tosontsengel", "country": "MN", "population": 9526, "coordinates": {"lon": 98.28389, "lat": 48.75667}}, {"name": "Tsetserleg", "country": "MN", "population": 21620, "coordinates": {"lon": 101.45417, "lat": 47.475}}, {"name": "Tsengel", "country": "MN", "population": 8348, "coordinates": {"lon": 100.88944, "lat": 49.47833}}, {"name": "Boulenouar", "country": "MR", "population": 1901, "coordinates": {"lon": -16.52404, "lat": 21.28965}}, {"name": "El Gheddiya", "country": "MR", "population": 1709, "coordinates": {"lon": -11.5724, "lat": 17.8257}}, {"name": "Tezu", "country": "IN", "population": 14927, "coordinates": {"lon": 96.12882, "lat": 27.91256}}, {"name": "S\u0101marr\u0101\u2019", "country": "IQ", "population": 158508, "coordinates": {"lon": 43.88568, "lat": 34.1959}}, {"name": "Koysinceq", "country": "IQ", "population": 44987, "coordinates": {"lon": 44.62873, "lat": 36.08289}}, {"name": "H\u012bt", "country": "IQ", "population": 31901, "coordinates": {"lon": 42.82768, "lat": 33.63664}}, {"name": "Yasuj", "country": "IR", "population": 96786, "coordinates": {"lon": 51.58796, "lat": 30.66824}}, {"name": "Bor\u0101zj\u0101n", "country": "IR", "population": 86059, "coordinates": {"lon": 51.2188, "lat": 29.2699}}, {"name": "Marcilly-sur-Tille", "country": "FR", "population": 93091, "coordinates": {"lon": 5.12979, "lat": 47.517}}, {"name": "Gerstheim", "country": "FR", "population": 32542, "coordinates": {"lon": 7.70395, "lat": 48.38215}}, {"name": "Port-Gentil", "country": "GA", "population": 109163, "coordinates": {"lon": 8.78151, "lat": -0.71933}}, {"name": "Garvagh", "country": "GB", "population": 273025, "coordinates": {"lon": -6.66667, "lat": 54.98333}}, {"name": "Camelford", "country": "GB", "population": 16873, "coordinates": {"lon": -4.67963, "lat": 50.62185}}, {"name": "Gali", "country": "GE", "population": 362553, "coordinates": {"lon": 41.73808, "lat": 42.62655}}, {"name": "Saint-Georges", "country": "GF", "population": 2742, "coordinates": {"lon": -51.80243, "lat": 3.88857}}, {"name": "Brifu", "country": "GM", "population": 52242, "coordinates": {"lon": -13.93333, "lat": 13.5}}, {"name": "Oc\u00f3s", "country": "GT", "population": 4417, "coordinates": {"lon": -92.19298, "lat": 14.50998}}, {"name": "Pakrac", "country": "HR", "population": 58552, "coordinates": {"lon": 17.18889, "lat": 45.43639}}, {"name": "Sigli", "country": "ID", "population": 105567, "coordinates": {"lon": 95.9609, "lat": 5.3848}}, {"name": "Rantauprapat", "country": "ID", "population": 103009, "coordinates": {"lon": 99.83333, "lat": 2.1}}, {"name": "Meulaboh", "country": "ID", "population": 64646, "coordinates": {"lon": 96.12664, "lat": 4.14402}}, {"name": "Sijunjung", "country": "ID", "population": 27786, "coordinates": {"lon": 100.9774, "lat": -0.7005}}, {"name": "Rantepao", "country": "ID", "population": 40438, "coordinates": {"lon": 119.8978, "lat": -2.9701}}, {"name": "Raha", "country": "ID", "population": 69980, "coordinates": {"lon": 122.7209, "lat": -4.838}}, {"name": "Malinau", "country": "ID", "population": 25596, "coordinates": {"lon": 116.62391, "lat": 3.58855}}, {"name": "Maba", "country": "ID", "population": 12560, "coordinates": {"lon": 128.29197, "lat": 0.7007}}, {"name": "Ambon", "country": "ID", "population": 347288, "coordinates": {"lon": 128.18333, "lat": -3.69583}}, {"name": "Sodankyl\u00e4", "country": "FI", "population": 8942, "coordinates": {"lon": 26.6, "lat": 67.41667}}, {"name": "Phalaborwa", "country": "ZA", "population": 109468, "coordinates": {"lon": 31.14107, "lat": -23.94299}}, {"name": "Jan Kempdorp", "country": "ZA", "population": 70661, "coordinates": {"lon": 24.83051, "lat": -27.92246}}, {"name": "Hoopstad", "country": "ZA", "population": 12663, "coordinates": {"lon": 25.90833, "lat": -27.83273}}, {"name": "Hluhluwe", "country": "ZA", "population": 1500, "coordinates": {"lon": 32.26762, "lat": -28.01895}}, {"name": "Kawambwa", "country": "ZM", "population": 20589, "coordinates": {"lon": 29.07913, "lat": -9.7915}}, {"name": "Mount Darwin", "country": "ZW", "population": 6349, "coordinates": {"lon": 31.58381, "lat": -16.77251}}, {"name": "Kariba", "country": "ZW", "population": 27600, "coordinates": {"lon": 28.8, "lat": -16.51667}}, {"name": "Dadeldhur\u0101", "country": "NP", "population": 19014, "coordinates": {"lon": 80.58059, "lat": 29.29842}}, {"name": "Taupo", "country": "NZ", "population": 31740, "coordinates": {"lon": 176.08333, "lat": -38.68333}}, {"name": "Yanaquihua", "country": "PE", "population": 554, "coordinates": {"lon": -72.87583, "lat": -15.77511}}, {"name": "R\u00edo Grande", "country": "PE", "population": 34700, "coordinates": {"lon": -75.19933, "lat": -14.516}}, {"name": "Conima", "country": "PE", "population": 803, "coordinates": {"lon": -69.4379, "lat": -15.45769}}, {"name": "Cerro de Pasco", "country": "PE", "population": 141491, "coordinates": {"lon": -76.25668, "lat": -10.66748}}, {"name": "Cairani", "country": "PE", "population": 20078, "coordinates": {"lon": -70.36329, "lat": -17.2857}}, {"name": "Dalipuga", "country": "PH", "population": 430396, "coordinates": {"lon": 124.25472, "lat": 8.31583}}, {"name": "Bobon", "country": "PH", "population": 4775, "coordinates": {"lon": 124.5636, "lat": 12.5246}}, {"name": "Tank", "country": "PK", "population": 336517, "coordinates": {"lon": 70.38315, "lat": 32.21707}}, {"name": "Kharan", "country": "PK", "population": 30841, "coordinates": {"lon": 65.41501, "lat": 28.58459}}, {"name": "Gwadar", "country": "PK", "population": 51901, "coordinates": {"lon": 62.32541, "lat": 25.12163}}, {"name": "Satinka", "country": "RU", "population": 3599, "coordinates": {"lon": 41.66966, "lat": 52.37389}}, {"name": "Milyutinskaya", "country": "RU", "population": 2743, "coordinates": {"lon": 41.66788, "lat": 48.62788}}, {"name": "Lyubovsho", "country": "RU", "population": 1379, "coordinates": {"lon": 31.5422, "lat": 52.9851}}, {"name": "El\u2019ton", "country": "RU", "population": 3600, "coordinates": {"lon": 46.84703, "lat": 49.1273}}, {"name": "Demyansk", "country": "RU", "population": 5693, "coordinates": {"lon": 32.46568, "lat": 57.64456}}, {"name": "Ulagan", "country": "RU", "population": 2623, "coordinates": {"lon": 87.96046, "lat": 50.63258}}, {"name": "Ust\u2019-Koksa", "country": "RU", "population": 4008, "coordinates": {"lon": 85.6108, "lat": 50.2696}}, {"name": "Sukhobuzimskoye", "country": "RU", "population": 4550, "coordinates": {"lon": 93.27278, "lat": 56.5}}, {"name": "Poltavka", "country": "RU", "population": 7103, "coordinates": {"lon": 71.76319, "lat": 54.36629}}, {"name": "Mugur-Aksy", "country": "RU", "population": 4012, "coordinates": {"lon": 90.43739, "lat": 50.38072}}, {"name": "Lokosovo", "country": "RU", "population": 3915, "coordinates": {"lon": 74.81667, "lat": 61.13333}}, {"name": "Kyzyl-Khaya", "country": "RU", "population": 4046, "coordinates": {"lon": 89.87821, "lat": 50.04986}}, {"name": "Kargasok", "country": "RU", "population": 8572, "coordinates": {"lon": 80.85722, "lat": 59.05556}}, {"name": "Biskamzha", "country": "RU", "population": 1961, "coordinates": {"lon": 89.52722, "lat": 53.44972}}, {"name": "Vershino-Darasunskiy", "country": "RU", "population": 6451, "coordinates": {"lon": 115.52661, "lat": 52.36604}}, {"name": "Peleduy", "country": "RU", "population": 4556, "coordinates": {"lon": 112.74056, "lat": 59.62889}}, {"name": "Nizhniy Tsasuchey", "country": "RU", "population": 3278, "coordinates": {"lon": 115.13333, "lat": 50.51667}}, {"name": "Kropotkin", "country": "RU", "population": 1765, "coordinates": {"lon": 115.32167, "lat": 58.50944}}, {"name": "Susuman", "country": "RU", "population": 7367, "coordinates": {"lon": 148.15396, "lat": 62.78075}}, {"name": "Esso", "country": "RU", "population": 1965, "coordinates": {"lon": 158.70708, "lat": 55.92738}}, {"name": "Langepas", "country": "RU", "population": 40000, "coordinates": {"lon": 75.2124, "lat": 61.25439}}, {"name": "Tab\u0101lah", "country": "SA", "population": 5151, "coordinates": {"lon": 42.4, "lat": 19.95}}, {"name": "Hafar Al-Batin", "country": "SA", "population": 271642, "coordinates": {"lon": 45.97077, "lat": 28.43279}}, {"name": "Al Khafj\u012b", "country": "SA", "population": 54857, "coordinates": {"lon": 48.49132, "lat": 28.43905}}, {"name": "Wad az Z\u0101ki", "country": "SD", "population": 9271, "coordinates": {"lon": 32.2065, "lat": 14.4619}}, {"name": "Rabak", "country": "SD", "population": 135281, "coordinates": {"lon": 32.73999, "lat": 13.18087}}, {"name": "El Bauga", "country": "SD", "population": 19141, "coordinates": {"lon": 33.90812, "lat": 18.26197}}, {"name": "Vittsj\u00f6", "country": "SE", "population": 87503, "coordinates": {"lon": 13.66081, "lat": 56.34366}}, {"name": "Malacky", "country": "SK", "population": 222517, "coordinates": {"lon": 17.02188, "lat": 48.43604}}, {"name": "K\u00e9dougou", "country": "SN", "population": 17922, "coordinates": {"lon": -12.18076, "lat": 12.55561}}, {"name": "Gol\u00e9r\u00e9", "country": "SN", "population": 5461, "coordinates": {"lon": -14.10165, "lat": 16.25575}}, {"name": "Wau", "country": "SS", "population": 127384, "coordinates": {"lon": 27.98972, "lat": 7.70111}}, {"name": "Aweil", "country": "SS", "population": 38745, "coordinates": {"lon": 27.39194, "lat": 8.76194}}, {"name": "Maridi", "country": "SS", "population": 14224, "coordinates": {"lon": 29.46944, "lat": 4.91667}}, {"name": "Victoria", "country": "SV", "population": 2023, "coordinates": {"lon": -88.63333, "lat": 13.95}}, {"name": "Ab\u00e9ch\u00e9", "country": "TD", "population": 74188, "coordinates": {"lon": 20.8324, "lat": 13.82916}}, {"name": "Sarh", "country": "TD", "population": 102528, "coordinates": {"lon": 18.38331, "lat": 9.14555}}, {"name": "Goundi", "country": "TD", "population": 10052, "coordinates": {"lon": 17.36597, "lat": 9.36267}}, {"name": "Bousso", "country": "TD", "population": 13555, "coordinates": {"lon": 16.71076, "lat": 10.48473}}, {"name": "Aozou", "country": "TD", "population": 1880, "coordinates": {"lon": 17.4275, "lat": 21.8375}}, {"name": "Sadao", "country": "TH", "population": 46236, "coordinates": {"lon": 100.42342, "lat": 6.63883}}, {"name": "Phatthalung", "country": "TH", "population": 43522, "coordinates": {"lon": 100.07792, "lat": 7.61786}}, {"name": "Saladan", "country": "TH", "population": 7946, "coordinates": {"lon": 99.03651, "lat": 7.61342}}, {"name": "El Hamma", "country": "TN", "population": 200637, "coordinates": {"lon": 9.79629, "lat": 33.89152}}, {"name": "Hengchun", "country": "TW", "population": 31288, "coordinates": {"lon": 120.74389, "lat": 22.00417}}, {"name": "Rogova", "country": "RO", "population": 391310, "coordinates": {"lon": 22.80667, "lat": 44.47167}}, {"name": "Lunca de Jos", "country": "RO", "population": 423296, "coordinates": {"lon": 25.98333, "lat": 46.56667}}, {"name": "\u0106uprija", "country": "RS", "population": 351575, "coordinates": {"lon": 21.37, "lat": 43.9275}}, {"name": "Sumulic\u00eb", "country": "RS", "population": 72188, "coordinates": {"lon": 21.734, "lat": 42.38682}}, {"name": "Zilair", "country": "RU", "population": 5872, "coordinates": {"lon": 57.4392, "lat": 52.2332}}, {"name": "Yemetsk", "country": "RU", "population": 12000, "coordinates": {"lon": 41.78023, "lat": 63.47191}}, {"name": "La Esperanza", "country": "MX", "population": 95229, "coordinates": {"lon": -91.86874, "lat": 16.15191}}, {"name": "Sauta", "country": "MX", "population": 144358, "coordinates": {"lon": -105.14249, "lat": 21.72116}}, {"name": "Y\u00e9cora", "country": "MX", "population": 2920, "coordinates": {"lon": -108.92781, "lat": 28.37154}}, {"name": "Villa Hidalgo", "country": "MX", "population": 614, "coordinates": {"lon": -104.91441, "lat": 26.24833}}, {"name": "Guadalupe Victoria", "country": "MX", "population": 1369, "coordinates": {"lon": -107.73835, "lat": 31.53396}}, {"name": "Bacubirito", "country": "MX", "population": 1172, "coordinates": {"lon": -107.915, "lat": 25.80944}}, {"name": "Okakarara", "country": "NA", "population": 5255, "coordinates": {"lon": 17.43333, "lat": -20.58333}}, {"name": "Ouallam", "country": "NE", "population": 7500, "coordinates": {"lon": 2.08597, "lat": 14.31641}}, {"name": "Kamba", "country": "NG", "population": 25568, "coordinates": {"lon": 3.65478, "lat": 11.85172}}, {"name": "Grand Marais", "country": "US", "population": 1327, "coordinates": {"lon": -90.33427, "lat": 47.75045}}, {"name": "Lunenburg", "country": "US", "population": 53838, "coordinates": {"lon": -71.68203, "lat": 44.46311}}, {"name": "Ordway", "country": "US", "population": 12958, "coordinates": {"lon": -103.75606, "lat": 38.21806}}, {"name": "Fort Sumner", "country": "US", "population": 932, "coordinates": {"lon": -104.24553, "lat": 34.47173}}, {"name": "Alamo", "country": "US", "population": 1080, "coordinates": {"lon": -115.16446, "lat": 37.36496}}, {"name": "Plainview", "country": "US", "population": 54098, "coordinates": {"lon": -101.70684, "lat": 34.18479}}, {"name": "Sitka", "country": "US", "population": 8863, "coordinates": {"lon": -135.33088, "lat": 57.05315}}, {"name": "Wells", "country": "US", "population": 1261, "coordinates": {"lon": -114.96449, "lat": 41.11159}}, {"name": "West Wendover", "country": "US", "population": 4294, "coordinates": {"lon": -114.07335, "lat": 40.7391}}, {"name": "Oakridge", "country": "US", "population": 3211, "coordinates": {"lon": -122.46172, "lat": 43.74651}}, {"name": "Grantsville", "country": "US", "population": 10027, "coordinates": {"lon": -112.4644, "lat": 40.59994}}, {"name": "Wheatland", "country": "US", "population": 3659, "coordinates": {"lon": -104.95295, "lat": 42.05407}}, {"name": "West End-Cobb Town", "country": "US", "population": 214818, "coordinates": {"lon": -85.8742, "lat": 33.6525}}, {"name": "Kodiak Station", "country": "US", "population": 1301, "coordinates": {"lon": -152.60004, "lat": 57.76587}}, {"name": "Temblador", "country": "VE", "population": 36447, "coordinates": {"lon": -62.64493, "lat": 9.00525}}, {"name": "El Sombrero", "country": "VE", "population": 31788, "coordinates": {"lon": -67.05818, "lat": 9.3863}}, {"name": "Altagracia de Orituco", "country": "VE", "population": 68207, "coordinates": {"lon": -66.38139, "lat": 9.86005}}, {"name": "Ch\u00e2u \u0110\u1ed1c", "country": "VN", "population": 70239, "coordinates": {"lon": 105.11667, "lat": 10.7}}, {"name": "Chervonopartyzansk", "country": "UA", "population": 306392, "coordinates": {"lon": 39.79618, "lat": 48.07613}}, {"name": "Kamuli", "country": "UG", "population": 12764, "coordinates": {"lon": 33.11972, "lat": 0.94722}}, {"name": "Helena", "country": "US", "population": 55160, "coordinates": {"lon": -90.59177, "lat": 34.52955}}, {"name": "Pelican Bay", "country": "US", "population": 369557, "coordinates": {"lon": -81.80564, "lat": 26.2312}}, {"name": "Georgetown", "country": "US", "population": 26535, "coordinates": {"lon": -85.10743, "lat": 31.88461}}, {"name": "Osage City", "country": "US", "population": 179090, "coordinates": {"lon": -95.82582, "lat": 38.6339}}, {"name": "Lucedale", "country": "US", "population": 3011, "coordinates": {"lon": -88.59002, "lat": 30.92519}}, {"name": "Anderson", "country": "US", "population": 94974, "coordinates": {"lon": -82.65013, "lat": 34.50344}}, {"name": "Greenback", "country": "US", "population": 371785, "coordinates": {"lon": -84.17214, "lat": 35.66119}}, {"name": "Wild Peach Village", "country": "US", "population": 116565, "coordinates": {"lon": -95.63384, "lat": 29.08358}}, {"name": "Alpena", "country": "US", "population": 10175, "coordinates": {"lon": -83.43275, "lat": 45.06168}}, {"name": "Namanga", "country": "TZ", "population": 12048, "coordinates": {"lon": 36.78377, "lat": -2.55116}}, {"name": "Mafinga", "country": "TZ", "population": 34958, "coordinates": {"lon": 35.06667, "lat": -7.25}}, {"name": "Gamba", "country": "TZ", "population": 428545, "coordinates": {"lon": 39.3, "lat": -5.9}}, {"name": "Madimba", "country": "TZ", "population": 12507, "coordinates": {"lon": 40.33333, "lat": -10.4}}, {"name": "Tuma", "country": "RU", "population": 11871, "coordinates": {"lon": 40.55374, "lat": 55.14798}}, {"name": "Tambovka", "country": "RU", "population": 3528, "coordinates": {"lon": 47.37773, "lat": 47.31528}}, {"name": "Ha\u2019ergai Dadui", "country": "CN", "population": 11128, "coordinates": {"lon": 100.42133, "lat": 37.2515}}, {"name": "Bole", "country": "CN", "population": 235585, "coordinates": {"lon": 82.06993, "lat": 44.89334}}, {"name": "Sansha", "country": "CN", "population": 1443, "coordinates": {"lon": 112.34064, "lat": 16.83912}}, {"name": "Tumaco", "country": "CO", "population": 86713, "coordinates": {"lon": -78.79275, "lat": 1.79112}}, {"name": "Caimito", "country": "CO", "population": 428018, "coordinates": {"lon": -75.11686, "lat": 8.78962}}, {"name": "Topes de Collantes", "country": "CU", "population": 9729, "coordinates": {"lon": -80.01929, "lat": 21.91524}}, {"name": "Vorbach", "country": "DE", "population": 355237, "coordinates": {"lon": 11.73625, "lat": 49.82136}}, {"name": "Schlotheim", "country": "DE", "population": 4288, "coordinates": {"lon": 10.65842, "lat": 51.24643}}, {"name": "L\u00e9o", "country": "BF", "population": 51743, "coordinates": {"lon": -2.10654, "lat": 11.10033}}, {"name": "Villaz\u00f3n", "country": "BO", "population": 30253, "coordinates": {"lon": -65.59422, "lat": -22.08659}}, {"name": "Tarija", "country": "BO", "population": 159269, "coordinates": {"lon": -64.72956, "lat": -21.53549}}, {"name": "Boyuibe", "country": "BO", "population": 3075, "coordinates": {"lon": -63.2823, "lat": -20.43274}}, {"name": "Quixad\u00e1", "country": "BR", "population": 49328, "coordinates": {"lon": -39.01528, "lat": -4.97139}}, {"name": "Mau\u00e9s", "country": "BR", "population": 40852, "coordinates": {"lon": -57.71861, "lat": -3.38361}}, {"name": "Carolina", "country": "BR", "population": 16228, "coordinates": {"lon": -47.46218, "lat": -7.33561}}, {"name": "Canind\u00e9", "country": "BR", "population": 42720, "coordinates": {"lon": -39.31167, "lat": -4.35889}}, {"name": "Afu\u00e1", "country": "BR", "population": 7031, "coordinates": {"lon": -50.38667, "lat": -0.15667}}, {"name": "Tapes", "country": "BR", "population": 18570, "coordinates": {"lon": -51.39583, "lat": -30.67333}}, {"name": "Santa Helena de Goi\u00e1s", "country": "BR", "population": 34254, "coordinates": {"lon": -50.59694, "lat": -17.81361}}, {"name": "Pontalina", "country": "BR", "population": 13639, "coordinates": {"lon": -49.44722, "lat": -17.525}}, {"name": "Piranhas", "country": "BR", "population": 9886, "coordinates": {"lon": -51.82222, "lat": -16.42694}}, {"name": "Paracatu", "country": "BR", "population": 70753, "coordinates": {"lon": -46.87472, "lat": -17.22222}}, {"name": "Guia Lopes da Laguna", "country": "BR", "population": 9681, "coordinates": {"lon": -56.11417, "lat": -21.45778}}, {"name": "Cristalina", "country": "BR", "population": 60210, "coordinates": {"lon": -47.6153, "lat": -16.76769}}, {"name": "Carangola", "country": "BR", "population": 183517, "coordinates": {"lon": -42.02944, "lat": -20.73306}}, {"name": "Camaqu\u00e3", "country": "BR", "population": 53169, "coordinates": {"lon": -51.81222, "lat": -30.85111}}, {"name": "Alto Araguaia", "country": "BR", "population": 8780, "coordinates": {"lon": -53.21528, "lat": -17.31472}}, {"name": "Porto Walter", "country": "BR", "population": 1816, "coordinates": {"lon": -72.74389, "lat": -8.26861}}, {"name": "Carlyle", "country": "CA", "population": 1508, "coordinates": {"lon": -102.26765, "lat": 49.63334}}, {"name": "High Level", "country": "CA", "population": 3159, "coordinates": {"lon": -117.13605, "lat": 58.51688}}, {"name": "La Tuque", "country": "CA", "population": 11001, "coordinates": {"lon": -72.7824, "lat": 47.43337}}, {"name": "Smoky Lake", "country": "CA", "population": 1063, "coordinates": {"lon": -112.46863, "lat": 54.11687}}, {"name": "Venise-en-Qu\u00e9bec", "country": "CA", "population": 125583, "coordinates": {"lon": -73.13245, "lat": 45.08338}}, {"name": "Jasper", "country": "CA", "population": 3948, "coordinates": {"lon": -118.08041, "lat": 52.87946}}, {"name": "Matane", "country": "CA", "population": 14812, "coordinates": {"lon": -67.52197, "lat": 48.82857}}, {"name": "Isamba", "country": "CD", "population": 8723, "coordinates": {"lon": 21.98333, "lat": -4.03333}}, {"name": "Ilebo", "country": "CD", "population": 107093, "coordinates": {"lon": 20.58638, "lat": -4.33111}}, {"name": "Beni", "country": "CD", "population": 232000, "coordinates": {"lon": 29.47306, "lat": 0.49113}}, {"name": "Libenge", "country": "CD", "population": 27053, "coordinates": {"lon": 18.63566, "lat": 3.65332}}, {"name": "Carnot", "country": "CF", "population": 38071, "coordinates": {"lon": 15.87735, "lat": 4.94273}}, {"name": "El Idrissia", "country": "DZ", "population": 38714, "coordinates": {"lon": 2.52749, "lat": 34.44542}}, {"name": "Catarama", "country": "EC", "population": 443893, "coordinates": {"lon": -79.45998, "lat": -1.57504}}, {"name": "Mersa Matruh", "country": "EG", "population": 176498, "coordinates": {"lon": 27.23725, "lat": 31.3529}}, {"name": "Benz\u00fa", "country": "ES", "population": 1987, "coordinates": {"lon": -5.37293, "lat": 35.91653}}, {"name": "Tafalla", "country": "ES", "population": 469676, "coordinates": {"lon": -1.67446, "lat": 42.52687}}, {"name": "Colera", "country": "ES", "population": 207572, "coordinates": {"lon": 3.15153, "lat": 42.40394}}, {"name": "Metu", "country": "ET", "population": 29648, "coordinates": {"lon": 35.58333, "lat": 8.3}}, {"name": "Grand-Lahou", "country": "CI", "population": 10273, "coordinates": {"lon": -5.00333, "lat": 5.25068}}, {"name": "Doropo", "country": "CI", "population": 48225, "coordinates": {"lon": -3.34577, "lat": 9.80955}}, {"name": "Daloa", "country": "CI", "population": 421871, "coordinates": {"lon": -6.45022, "lat": 6.87735}}, {"name": "Dabakala", "country": "CI", "population": 13717, "coordinates": {"lon": -4.42863, "lat": 8.36321}}, {"name": "Avarua", "country": "CK", "population": 13373, "coordinates": {"lon": -159.77545, "lat": -21.2075}}, {"name": "Punta Arenas", "country": "CL", "population": 117430, "coordinates": {"lon": -70.91129, "lat": -53.15483}}, {"name": "Ovalle", "country": "CL", "population": 77138, "coordinates": {"lon": -71.19901, "lat": -30.60106}}, {"name": "Constituci\u00f3n", "country": "CL", "population": 37917, "coordinates": {"lon": -72.41156, "lat": -35.33321}}, {"name": "Carahue", "country": "CL", "population": 11875, "coordinates": {"lon": -73.16101, "lat": -38.71122}}, {"name": "Arica", "country": "CL", "population": 185999, "coordinates": {"lon": -70.29792, "lat": -18.4746}}, {"name": "Liuku", "country": "CN", "population": 63013, "coordinates": {"lon": 98.85567, "lat": 25.8505}}, {"name": "Lhasa", "country": "CN", "population": 118721, "coordinates": {"lon": 91.1, "lat": 29.65}}, {"name": "Sandaohezi", "country": "CN", "population": 60129, "coordinates": {"lon": 85.62009, "lat": 44.32597}}, {"name": "Yanggu", "country": "CN", "population": 74725, "coordinates": {"lon": 115.77528, "lat": 36.11056}}, {"name": "Gutao", "country": "CN", "population": 42000, "coordinates": {"lon": 112.17806, "lat": 37.2025}}, {"name": "Jinchang", "country": "CN", "population": 228561, "coordinates": {"lon": 102.19379, "lat": 38.50062}}, {"name": "Jiexiu", "country": "CN", "population": 77178, "coordinates": {"lon": 111.9125, "lat": 37.02444}}, {"name": "Hanyin Chengguanzhen", "country": "CN", "population": 66926, "coordinates": {"lon": 108.50472, "lat": 32.89139}}, {"name": "Gejiu", "country": "CN", "population": 136135, "coordinates": {"lon": 103.15372, "lat": 23.36085}}, {"name": "Songyang", "country": "CN", "population": 62375, "coordinates": {"lon": 113.02806, "lat": 34.45528}}, {"name": "Baoying", "country": "CN", "population": 80292, "coordinates": {"lon": 119.30917, "lat": 33.22917}}, {"name": "Suifenhe", "country": "CN", "population": 15183, "coordinates": {"lon": 131.14775, "lat": 44.39982}}, {"name": "Songjianghe", "country": "CN", "population": 67672, "coordinates": {"lon": 127.47895, "lat": 42.1859}}, {"name": "Heihe", "country": "CN", "population": 109427, "coordinates": {"lon": 127.49016, "lat": 50.24413}}, {"name": "Fujin", "country": "CN", "population": 89442, "coordinates": {"lon": 132.02957, "lat": 47.24723}}, {"name": "Songling", "country": "CN", "population": 52277, "coordinates": {"lon": 118.26908, "lat": 40.29303}}, {"name": "Moil", "country": "AU", "population": 293625, "coordinates": {"lon": 130.88088, "lat": -12.3885}}, {"name": "Pegs Creek", "country": "AU", "population": 31584, "coordinates": {"lon": 116.83278, "lat": -20.7383}}, {"name": "Whyalla Jenkins", "country": "AU", "population": 48261, "coordinates": {"lon": 137.51269, "lat": -33.02205}}, {"name": "Wadeye", "country": "AU", "population": 2288, "coordinates": {"lon": 129.52177, "lat": -14.23834}}, {"name": "Itterbeck", "country": "DE", "population": 1821, "coordinates": {"lon": 6.80354, "lat": 52.50618}}, {"name": "Tarinkot", "country": "AF", "population": 10000, "coordinates": {"lon": 65.87806, "lat": 32.62998}}, {"name": "M\u012br\u0101b\u0101d", "country": "AF", "population": 14160, "coordinates": {"lon": 61.8383, "lat": 30.43624}}, {"name": "\u1e28uk\u016bmat\u012b Azrah", "country": "AF", "population": 12526, "coordinates": {"lon": 69.64573, "lat": 34.17355}}, {"name": "San Javier", "country": "AR", "population": 15606, "coordinates": {"lon": -59.9317, "lat": -30.57781}}, {"name": "Ingeniero Guillermo N. Ju\u00e1rez", "country": "AR", "population": 10357, "coordinates": {"lon": -61.85502, "lat": -23.89861}}, {"name": "Colonia Dora", "country": "AR", "population": 2406, "coordinates": {"lon": -62.95, "lat": -28.6}}, {"name": "Chivilcoy", "country": "AR", "population": 54514, "coordinates": {"lon": -60.01667, "lat": -34.89566}}, {"name": "Nhulunbuy", "country": "AU", "population": 3397, "coordinates": {"lon": 136.77841, "lat": -12.18165}}, {"name": "Kununurra", "country": "AU", "population": 6836, "coordinates": {"lon": 128.74208, "lat": -15.77825}}, {"name": "Swan Hill", "country": "AU", "population": 10875, "coordinates": {"lon": 143.5544, "lat": -35.33781}}, {"name": "Ouyen", "country": "AU", "population": 1185, "coordinates": {"lon": 142.32034, "lat": -35.07087}}, {"name": "Forbes", "country": "AU", "population": 20854, "coordinates": {"lon": 148.0076, "lat": -33.38436}}, {"name": "Dubbo", "country": "AU", "population": 53566, "coordinates": {"lon": 148.60484, "lat": -32.24295}}, {"name": "Casterton", "country": "AU", "population": 1607, "coordinates": {"lon": 141.40297, "lat": -37.58489}}, {"name": "San Calixto", "country": "CO", "population": 157053, "coordinates": {"lon": -73.20737, "lat": 8.4021}}, {"name": "La Primavera", "country": "CO", "population": 9690, "coordinates": {"lon": -70.40917, "lat": 5.49056}}, {"name": "Quepos", "country": "CR", "population": 7810, "coordinates": {"lon": -84.16231, "lat": 9.43063}}, {"name": "Mais\u00ed", "country": "CU", "population": 28276, "coordinates": {"lon": -74.15181, "lat": 20.24673}}, {"name": "Bayrischzell", "country": "DE", "population": 1601, "coordinates": {"lon": 12.01449, "lat": 47.6744}}, {"name": "Pedernales", "country": "DO", "population": 11072, "coordinates": {"lon": -71.74403, "lat": 18.03838}}, {"name": "Ksar el Boukhari", "country": "DZ", "population": 77166, "coordinates": {"lon": 2.74905, "lat": 35.88889}}, {"name": "Sharm el-Sheikh", "country": "EG", "population": 12000, "coordinates": {"lon": 34.32995, "lat": 27.91582}}, {"name": "El-Tor", "country": "EG", "population": 14972, "coordinates": {"lon": 33.6222, "lat": 28.24168}}, {"name": "Boujdour", "country": "EH", "population": 42651, "coordinates": {"lon": -14.48513, "lat": 26.13073}}, {"name": "Torre de Santa Mar\u00eda", "country": "ES", "population": 316207, "coordinates": {"lon": -6.1161, "lat": 39.25441}}, {"name": "Peraleda de la Mata", "country": "ES", "population": 90251, "coordinates": {"lon": -5.46065, "lat": 39.85288}}, {"name": "Oliva de la Frontera", "country": "ES", "population": 129365, "coordinates": {"lon": -6.91873, "lat": 38.27595}}, {"name": "Cetina", "country": "ES", "population": 50029, "coordinates": {"lon": -1.96281, "lat": 41.29208}}, {"name": "Caminreal", "country": "ES", "population": 20953, "coordinates": {"lon": -1.32416, "lat": 40.83883}}, {"name": "Costacabana", "country": "ES", "population": 450866, "coordinates": {"lon": -2.38111, "lat": 36.83807}}, {"name": "Bako", "country": "ET", "population": 17872, "coordinates": {"lon": 36.56667, "lat": 5.78333}}, {"name": "Cashel", "country": "IE", "population": 36622, "coordinates": {"lon": -7.88556, "lat": 52.51583}}, {"name": "Pungan\u016bru", "country": "IN", "population": 272859, "coordinates": {"lon": 78.57186, "lat": 13.36672}}, {"name": "K\u0101ngar", "country": "IN", "population": 153972, "coordinates": {"lon": 76.26267, "lat": 32.09135}}, {"name": "Homn\u0101b\u0101d", "country": "IN", "population": 402222, "coordinates": {"lon": 77.12519, "lat": 17.77074}}, {"name": "Gud\u0101ri", "country": "IN", "population": 6895, "coordinates": {"lon": 83.78128, "lat": 19.34762}}, {"name": "F\u0101zilka", "country": "IN", "population": 70887, "coordinates": {"lon": 74.02836, "lat": 30.40207}}, {"name": "Bh\u0101npur\u012b", "country": "IN", "population": 247522, "coordinates": {"lon": 80.93218, "lat": 21.0919}}, {"name": "\u1e28alabja", "country": "IQ", "population": 57333, "coordinates": {"lon": 45.98611, "lat": 35.17778}}, {"name": "Tak\u0101b", "country": "IR", "population": 51541, "coordinates": {"lon": 47.1133, "lat": 36.4009}}, {"name": "Soleh Bon", "country": "IR", "population": 1500, "coordinates": {"lon": 52.56091, "lat": 35.76841}}, {"name": "Neysh\u0101b\u016br", "country": "IR", "population": 220929, "coordinates": {"lon": 58.79575, "lat": 36.21329}}, {"name": "Ardest\u0101n", "country": "IR", "population": 16058, "coordinates": {"lon": 52.3694, "lat": 33.3761}}, {"name": "Sparta'", "country": "IT", "population": 49383, "coordinates": {"lon": 15.53503, "lat": 38.29371}}, {"name": "Poggio Picenze", "country": "IT", "population": 130029, "coordinates": {"lon": 13.54036, "lat": 42.32061}}, {"name": "Piedimonte San Germano", "country": "IT", "population": 332588, "coordinates": {"lon": 13.75017, "lat": 41.49796}}, {"name": "Saint-Paul", "country": "FR", "population": 191676, "coordinates": {"lon": 4.22617, "lat": 45.3984}}, {"name": "Fl\u00e9ac", "country": "FR", "population": 237462, "coordinates": {"lon": 0.09346, "lat": 45.66514}}, {"name": "Fesches-le-Ch\u00e2tel", "country": "FR", "population": 179004, "coordinates": {"lon": 6.90535, "lat": 47.52415}}, {"name": "Boulleret", "country": "FR", "population": 3784, "coordinates": {"lon": 2.87343, "lat": 47.42419}}, {"name": "Megal\u00f3poli", "country": "GR", "population": 5283, "coordinates": {"lon": 22.14222, "lat": 37.40111}}, {"name": "Champerico", "country": "GT", "population": 9941, "coordinates": {"lon": -91.91339, "lat": 14.29206}}, {"name": "D\u00e9rac", "country": "HT", "population": 29539, "coordinates": {"lon": -71.81451, "lat": 19.65476}}, {"name": "Izs\u00f3falva", "country": "HU", "population": 50741, "coordinates": {"lon": 20.66667, "lat": 48.3}}, {"name": "Waisai", "country": "ID", "population": 22541, "coordinates": {"lon": 130.5072, "lat": -0.2379}}, {"name": "Nabire", "country": "ID", "population": 43898, "coordinates": {"lon": 135.50074, "lat": -3.35989}}, {"name": "Mamuju", "country": "ID", "population": 15000, "coordinates": {"lon": 118.88611, "lat": -2.68056}}, {"name": "Fef", "country": "ID", "population": 966, "coordinates": {"lon": 132.43222, "lat": -0.80889}}, {"name": "Swinford", "country": "IE", "population": 104534, "coordinates": {"lon": -8.94346, "lat": 53.93941}}, {"name": "Deganwy", "country": "GB", "population": 204283, "coordinates": {"lon": -3.82735, "lat": 53.30446}}, {"name": "H\u00fcrth", "country": "DE", "population": 433455, "coordinates": {"lon": 6.86761, "lat": 50.87079}}, {"name": "Suomussalmi", "country": "FI", "population": 16365, "coordinates": {"lon": 28.90778, "lat": 64.88685}}, {"name": "Reisj\u00e4rvi", "country": "FI", "population": 172335, "coordinates": {"lon": 24.9, "lat": 63.61667}}, {"name": "Lahti", "country": "FI", "population": 230893, "coordinates": {"lon": 25.66151, "lat": 60.98267}}, {"name": "Kuhmo", "country": "FI", "population": 10214, "coordinates": {"lon": 29.51667, "lat": 64.13333}}, {"name": "Tofol", "country": "FM", "population": 9686, "coordinates": {"lon": 163.00781, "lat": 5.32479}}, {"name": "Vertus", "country": "FR", "population": 491749, "coordinates": {"lon": 4.00216, "lat": 48.90609}}, {"name": "Newberry", "country": "US", "population": 1455, "coordinates": {"lon": -85.50956, "lat": 46.355}}, {"name": "Ely", "country": "US", "population": 3408, "coordinates": {"lon": -91.86709, "lat": 47.90324}}, {"name": "Plainview", "country": "US", "population": 5821, "coordinates": {"lon": -97.79201, "lat": 42.34973}}, {"name": "Sharpsville", "country": "US", "population": 187752, "coordinates": {"lon": -80.47201, "lat": 41.25922}}, {"name": "Woodland Heights", "country": "US", "population": 66508, "coordinates": {"lon": -79.71172, "lat": 41.40978}}, {"name": "Hayward", "country": "US", "population": 2296, "coordinates": {"lon": -91.48462, "lat": 46.01301}}, {"name": "First Mesa", "country": "US", "population": 1555, "coordinates": {"lon": -110.38152, "lat": 35.83667}}, {"name": "Trinidad", "country": "US", "population": 8153, "coordinates": {"lon": -104.50054, "lat": 37.16946}}, {"name": "Alamo", "country": "US", "population": 1085, "coordinates": {"lon": -107.51088, "lat": 34.42089}}, {"name": "Presidio", "country": "US", "population": 3904, "coordinates": {"lon": -104.37215, "lat": 29.56074}}, {"name": "Rosita North", "country": "US", "population": 55181, "coordinates": {"lon": -100.42218, "lat": 28.65644}}, {"name": "Beach", "country": "US", "population": 9219, "coordinates": {"lon": -104.00437, "lat": 46.91807}}, {"name": "Metlakatla", "country": "US", "population": 1405, "coordinates": {"lon": -131.57698, "lat": 55.12905}}, {"name": "Redway", "country": "US", "population": 1225, "coordinates": {"lon": -123.82336, "lat": 40.12014}}, {"name": "Paris", "country": "US", "population": 5959, "coordinates": {"lon": -111.40104, "lat": 42.22715}}, {"name": "Hamilton", "country": "US", "population": 4602, "coordinates": {"lon": -114.16037, "lat": 46.24687}}, {"name": "Terry", "country": "US", "population": 597, "coordinates": {"lon": -105.31221, "lat": 46.79306}}, {"name": "Belfield", "country": "US", "population": 1055, "coordinates": {"lon": -103.19962, "lat": 46.88529}}, {"name": "Lusk", "country": "US", "population": 1628, "coordinates": {"lon": -104.45217, "lat": 42.76247}}, {"name": "Wright", "country": "US", "population": 1862, "coordinates": {"lon": -105.49201, "lat": 43.75124}}, {"name": "Girdwood", "country": "US", "population": 2250, "coordinates": {"lon": -149.16639, "lat": 60.9425}}, {"name": "Crocker", "country": "US", "population": 1268, "coordinates": {"lon": -122.10383, "lat": 47.08091}}, {"name": "Shohimardon", "country": "UZ", "population": 5100, "coordinates": {"lon": 71.80512, "lat": 39.98322}}, {"name": "Gagarin Shahri", "country": "UZ", "population": 241964, "coordinates": {"lon": 68.16768, "lat": 40.66473}}, {"name": "Vatican City", "country": "VA", "population": 829, "coordinates": {"lon": 12.45414, "lat": 41.90268}}, {"name": "Caicara del Orinoco", "country": "VE", "population": 67277, "coordinates": {"lon": -66.16815, "lat": 7.63501}}, {"name": "Tuy\u00ean Quang", "country": "VN", "population": 201176, "coordinates": {"lon": 105.21424, "lat": 21.82356}}, {"name": "C\u00f4n S\u01a1n", "country": "VN", "population": 1500, "coordinates": {"lon": 106.60824, "lat": 8.68641}}, {"name": "Horinchovo", "country": "UA", "population": 82051, "coordinates": {"lon": 23.4321, "lat": 48.27044}}, {"name": "Ocilla", "country": "US", "population": 171611, "coordinates": {"lon": -83.2513, "lat": 31.59447}}, {"name": "Reidsville", "country": "US", "population": 102146, "coordinates": {"lon": -82.1179, "lat": 32.08686}}, {"name": "Sulphur", "country": "US", "population": 187146, "coordinates": {"lon": -93.37738, "lat": 30.23659}}, {"name": "Monroe", "country": "US", "population": 64305, "coordinates": {"lon": -80.54951, "lat": 34.98543}}, {"name": "Elkview", "country": "US", "population": 17428, "coordinates": {"lon": -81.4804, "lat": 38.44288}}, {"name": "Diamond", "country": "US", "population": 226473, "coordinates": {"lon": -88.25173, "lat": 41.28864}}, {"name": "Kewanee", "country": "US", "population": 108669, "coordinates": {"lon": -89.92483, "lat": 41.24559}}, {"name": "Houghton Lake", "country": "US", "population": 53069, "coordinates": {"lon": -84.76475, "lat": 44.31474}}, {"name": "Thohoyandou", "country": "ZA", "population": 44046, "coordinates": {"lon": 30.48497, "lat": -22.94564}}, {"name": "Senanga", "country": "ZM", "population": 10005, "coordinates": {"lon": 23.26667, "lat": -16.11667}}, {"name": "Kaoma", "country": "ZM", "population": 14212, "coordinates": {"lon": 24.8, "lat": -14.78333}}, {"name": "Nyanga", "country": "ZW", "population": 4852, "coordinates": {"lon": 32.75, "lat": -18.21667}}, {"name": "Mgandu", "country": "TZ", "population": 23718, "coordinates": {"lon": 34.13333, "lat": -5.95}}, {"name": "Matai", "country": "TZ", "population": 24070, "coordinates": {"lon": 31.51667, "lat": -8.3}}, {"name": "Kondoa", "country": "TZ", "population": 23518, "coordinates": {"lon": 35.78333, "lat": -4.9}}, {"name": "Pearl Lagoon", "country": "NI", "population": 6809, "coordinates": {"lon": -83.67123, "lat": 12.34294}}, {"name": "Steenwijkerwold", "country": "NL", "population": 9010, "coordinates": {"lon": 6.06389, "lat": 52.80417}}, {"name": "Kongsberg", "country": "NO", "population": 31851, "coordinates": {"lon": 9.65017, "lat": 59.66858}}, {"name": "Hauknes", "country": "NO", "population": 22851, "coordinates": {"lon": 14.06667, "lat": 66.28333}}, {"name": "Alofi", "country": "NU", "population": 624, "coordinates": {"lon": -169.91957, "lat": -19.05294}}, {"name": "Kihikihi", "country": "NZ", "population": 23142, "coordinates": {"lon": 175.35, "lat": -38.03333}}, {"name": "Yanqul", "country": "OM", "population": 16599, "coordinates": {"lon": 56.53969, "lat": 23.58645}}, {"name": "Minas de Marcona", "country": "PE", "population": 15478, "coordinates": {"lon": -75.11028, "lat": -15.21194}}, {"name": "El Cardo", "country": "PE", "population": 744, "coordinates": {"lon": -72.72736, "lat": -16.60315}}, {"name": "Sabaino", "country": "PE", "population": 7593, "coordinates": {"lon": -72.94515, "lat": -14.31279}}, {"name": "Suso", "country": "PH", "population": 255880, "coordinates": {"lon": 120.4611, "lat": 17.3594}}, {"name": "San Pascual", "country": "PH", "population": 19424, "coordinates": {"lon": 122.97709, "lat": 13.12888}}, {"name": "Pitogo", "country": "PH", "population": 245206, "coordinates": {"lon": 121.31215, "lat": 5.88823}}, {"name": "Gumaus", "country": "PH", "population": 254053, "coordinates": {"lon": 122.7229, "lat": 14.3103}}, {"name": "Bonbon", "country": "PH", "population": 90465, "coordinates": {"lon": 124.73389, "lat": 9.10528}}, {"name": "Basiawan", "country": "PH", "population": 165855, "coordinates": {"lon": 125.48694, "lat": 6.53417}}, {"name": "Wana", "country": "PK", "population": 2223, "coordinates": {"lon": 69.5725, "lat": 32.29889}}, {"name": "Surab", "country": "PK", "population": 13104, "coordinates": {"lon": 66.25999, "lat": 28.49276}}, {"name": "Sohbatpur", "country": "PK", "population": 8940, "coordinates": {"lon": 68.54298, "lat": 28.52038}}, {"name": "Wasilk\u00f3w", "country": "PL", "population": 428443, "coordinates": {"lon": 23.20776, "lat": 53.19909}}, {"name": "Sol\u2019-Iletsk", "country": "RU", "population": 27419, "coordinates": {"lon": 54.99176, "lat": 51.1631}}, {"name": "Sevsk", "country": "RU", "population": 31214, "coordinates": {"lon": 34.49347, "lat": 52.14904}}, {"name": "Myatlevo", "country": "RU", "population": 124302, "coordinates": {"lon": 35.67619, "lat": 54.89693}}, {"name": "Lukovetskiy", "country": "RU", "population": 2701, "coordinates": {"lon": 41.9211, "lat": 64.2956}}, {"name": "Lotoshino", "country": "RU", "population": 26065, "coordinates": {"lon": 35.64406, "lat": 56.23435}}, {"name": "Kokorevka", "country": "RU", "population": 69037, "coordinates": {"lon": 34.27603, "lat": 52.58747}}, {"name": "Kholm-Zhirkovskiy", "country": "RU", "population": 3726, "coordinates": {"lon": 33.48667, "lat": 55.511}}, {"name": "Gus\u2019-Khrustal\u2019nyy", "country": "RU", "population": 173861, "coordinates": {"lon": 40.65023, "lat": 55.61171}}, {"name": "Belyayevka", "country": "RU", "population": 5110, "coordinates": {"lon": 56.41667, "lat": 51.39742}}, {"name": "Turochak", "country": "RU", "population": 5514, "coordinates": {"lon": 87.1224, "lat": 52.2576}}, {"name": "Sukpak", "country": "RU", "population": 131006, "coordinates": {"lon": 94.63333, "lat": 51.66667}}, {"name": "Shitkino", "country": "RU", "population": 2363, "coordinates": {"lon": 98.3543, "lat": 56.3703}}, {"name": "Polovinnoye", "country": "RU", "population": 5103, "coordinates": {"lon": 65.98639, "lat": 54.79139}}, {"name": "Plotnikovo", "country": "RU", "population": 4983, "coordinates": {"lon": 85.94361, "lat": 55.02472}}, {"name": "Gari", "country": "RU", "population": 18364, "coordinates": {"lon": 62.34967, "lat": 59.43075}}, {"name": "Blagoveshchenka", "country": "RU", "population": 12319, "coordinates": {"lon": 79.86667, "lat": 52.83333}}, {"name": "Bay-Khaak", "country": "RU", "population": 3058, "coordinates": {"lon": 94.46371, "lat": 51.16105}}, {"name": "Zhemchug", "country": "RU", "population": 1800, "coordinates": {"lon": 102.459, "lat": 51.6861}}, {"name": "Ulety", "country": "RU", "population": 6075, "coordinates": {"lon": 112.4843, "lat": 51.35589}}, {"name": "Taldan", "country": "RU", "population": 3436, "coordinates": {"lon": 124.8149, "lat": 53.68981}}, {"name": "Manzurka", "country": "RU", "population": 1004, "coordinates": {"lon": 106.05444, "lat": 53.48556}}, {"name": "Mama", "country": "RU", "population": 4239, "coordinates": {"lon": 112.89861, "lat": 58.31056}}, {"name": "Chara", "country": "RU", "population": 1974, "coordinates": {"lon": 118.26306, "lat": 56.90639}}, {"name": "Almaznyy", "country": "RU", "population": 1699, "coordinates": {"lon": 114.32778, "lat": 62.44917}}, {"name": "Deputatsky", "country": "RU", "population": 3484, "coordinates": {"lon": 139.97571, "lat": 69.30958}}, {"name": "Kuanda", "country": "RU", "population": 9601, "coordinates": {"lon": 116.08056, "lat": 56.31611}}, {"name": "Talaya", "country": "RU", "population": 1054, "coordinates": {"lon": 152.76878, "lat": 61.37038}}, {"name": "Petropavlovsk-Kamchatsky", "country": "RU", "population": 248879, "coordinates": {"lon": 158.62751, "lat": 53.06393}}, {"name": "Kuril\u2019sk", "country": "RU", "population": 1607, "coordinates": {"lon": 147.87767, "lat": 45.22686}}, {"name": "Lorino", "country": "RU", "population": 1450, "coordinates": {"lon": -171.70387, "lat": 65.50306}}, {"name": "Novoorlovsk", "country": "RU", "population": 30941, "coordinates": {"lon": 114.7261, "lat": 51.07549}}, {"name": "shokhaib\u064d", "country": "SA", "population": 1500, "coordinates": {"lon": 46.26871, "lat": 24.49023}}, {"name": "Gebeit", "country": "SD", "population": 11095, "coordinates": {"lon": 36.31667, "lat": 21.06667}}, {"name": "Saint-Louis", "country": "SN", "population": 258592, "coordinates": {"lon": -16.48962, "lat": 16.01793}}, {"name": "Gu\u00e9oul", "country": "SN", "population": 10918, "coordinates": {"lon": -16.35, "lat": 15.48333}}, {"name": "Subaykh\u0101n", "country": "SY", "population": 438657, "coordinates": {"lon": 40.59987, "lat": 34.85305}}, {"name": "Mao", "country": "TD", "population": 18031, "coordinates": {"lon": 15.31189, "lat": 14.12286}}, {"name": "Kyab\u00e9", "country": "TD", "population": 16177, "coordinates": {"lon": 18.94493, "lat": 9.45149}}, {"name": "Tha Bo", "country": "TH", "population": 136139, "coordinates": {"lon": 102.58139, "lat": 17.85003}}, {"name": "Ko Chang Tai", "country": "TH", "population": 2346, "coordinates": {"lon": 102.37267, "lat": 12.00171}}, {"name": "Neftobod", "country": "TJ", "population": 498039, "coordinates": {"lon": 70.57193, "lat": 40.21524}}, {"name": "Shaydon", "country": "TJ", "population": 11705, "coordinates": {"lon": 70.3502, "lat": 40.66992}}, {"name": "T\u00fcrkmenba\u015fy", "country": "TM", "population": 68292, "coordinates": {"lon": 52.95517, "lat": 40.02216}}, {"name": "Serhetabat", "country": "TM", "population": 5200, "coordinates": {"lon": 62.34383, "lat": 35.27992}}, {"name": "Ba\u015fmak\u00e7\u0131", "country": "TR", "population": 180283, "coordinates": {"lon": 30.01167, "lat": 37.89722}}, {"name": "Daday", "country": "TR", "population": 154834, "coordinates": {"lon": 33.46667, "lat": 41.47866}}, {"name": "Abana", "country": "TR", "population": 53752, "coordinates": {"lon": 34.011, "lat": 41.97858}}, {"name": "Jincheng", "country": "TW", "population": 37507, "coordinates": {"lon": 118.31712, "lat": 24.43415}}, {"name": "Szklarska Por\u0119ba", "country": "PL", "population": 192784, "coordinates": {"lon": 15.52274, "lat": 50.82567}}, {"name": "L\u0105dek", "country": "PL", "population": 459249, "coordinates": {"lon": 17.92994, "lat": 52.20929}}, {"name": "San Antonio", "country": "PR", "population": 165831, "coordinates": {"lon": -67.09851, "lat": 18.49217}}, {"name": "Salvada", "country": "PT", "population": 89476, "coordinates": {"lon": -7.77448, "lat": 37.93771}}, {"name": "Mbocayaty", "country": "PY", "population": 110517, "coordinates": {"lon": -56.42179, "lat": -25.71938}}, {"name": "Gr\u0103dinari", "country": "RO", "population": 20693, "coordinates": {"lon": 21.59889, "lat": 45.11861}}, {"name": "Epureni", "country": "RO", "population": 293892, "coordinates": {"lon": 28.03829, "lat": 46.70769}}, {"name": "Yasnyy", "country": "RU", "population": 17359, "coordinates": {"lon": 59.8742, "lat": 51.0333}}, {"name": "Villagr\u00e1n", "country": "MX", "population": 30170, "coordinates": {"lon": -99.49107, "lat": 24.47264}}, {"name": "Mazatl\u00e1n", "country": "MX", "population": 464485, "coordinates": {"lon": -99.46483, "lat": 17.4362}}, {"name": "Dzoncauich", "country": "MX", "population": 91062, "coordinates": {"lon": -88.89125, "lat": 21.12893}}, {"name": "La Concepci\u00f3n", "country": "MX", "population": 433463, "coordinates": {"lon": -106.1689, "lat": 23.3945}}, {"name": "Kuala Pilah", "country": "MY", "population": 19510, "coordinates": {"lon": 102.2487, "lat": 2.7389}}, {"name": "Lumut", "country": "MY", "population": 312890, "coordinates": {"lon": 100.6298, "lat": 4.2323}}, {"name": "Windhoek", "country": "NA", "population": 268132, "coordinates": {"lon": 17.08323, "lat": -22.55941}}, {"name": "Usakos", "country": "NA", "population": 9147, "coordinates": {"lon": 15.6, "lat": -22.0}}, {"name": "Otjimbingwe", "country": "NA", "population": 7677, "coordinates": {"lon": 16.13333, "lat": -22.35}}, {"name": "Henties Bay", "country": "NA", "population": 3837, "coordinates": {"lon": 14.28333, "lat": -22.11667}}, {"name": "Tibiri", "country": "NE", "population": 193297, "coordinates": {"lon": 7.04848, "lat": 13.56271}}, {"name": "Magaria", "country": "NE", "population": 19419, "coordinates": {"lon": 8.90991, "lat": 12.99826}}, {"name": "Zango", "country": "NG", "population": 58674, "coordinates": {"lon": 8.48574, "lat": 13.05313}}, {"name": "Nafada", "country": "NG", "population": 22920, "coordinates": {"lon": 11.33261, "lat": 11.09596}}, {"name": "Gwoza", "country": "NG", "population": 166708, "coordinates": {"lon": 13.69595, "lat": 11.08313}}, {"name": "Bornu Yassu", "country": "NG", "population": 5811, "coordinates": {"lon": 12.56856, "lat": 12.27503}}, {"name": "Nishinoomote", "country": "JP", "population": 17832, "coordinates": {"lon": 131.0, "lat": 30.73333}}, {"name": "Daroot-Korgon", "country": "KG", "population": 6421, "coordinates": {"lon": 72.20518, "lat": 39.55274}}, {"name": "Chayek", "country": "KG", "population": 3762, "coordinates": {"lon": 74.51699, "lat": 41.92768}}, {"name": "Pailin", "country": "KH", "population": 17850, "coordinates": {"lon": 102.60928, "lat": 12.84895}}, {"name": "Andong", "country": "KR", "population": 346107, "coordinates": {"lon": 128.72275, "lat": 36.56636}}, {"name": "Zhezqazghan", "country": "KZ", "population": 104357, "coordinates": {"lon": 67.71118, "lat": 47.78746}}, {"name": "Sarykemer", "country": "KZ", "population": 15132, "coordinates": {"lon": 71.5101, "lat": 43.00929}}, {"name": "Bulayevo", "country": "KZ", "population": 9886, "coordinates": {"lon": 70.44155, "lat": 54.90596}}, {"name": "Bakanas", "country": "KZ", "population": 6965, "coordinates": {"lon": 76.27464, "lat": 44.80595}}, {"name": "Novoishimskiy", "country": "KZ", "population": 6062, "coordinates": {"lon": 66.76944, "lat": 53.19806}}, {"name": "Ettelbruck", "country": "LU", "population": 365651, "coordinates": {"lon": 6.10417, "lat": 49.8475}}, {"name": "Brak", "country": "LY", "population": 39444, "coordinates": {"lon": 14.27139, "lat": 27.54956}}, {"name": "T\u00f4lanaro", "country": "MG", "population": 67284, "coordinates": {"lon": 46.98329, "lat": -25.03249}}, {"name": "Miandrivazo", "country": "MG", "population": 20631, "coordinates": {"lon": 45.45559, "lat": -19.52905}}, {"name": "Ampahana", "country": "MG", "population": 25000, "coordinates": {"lon": 50.21667, "lat": -14.75}}, {"name": "Sikasso", "country": "ML", "population": 144786, "coordinates": {"lon": -5.66654, "lat": 11.31755}}, {"name": "Markala", "country": "ML", "population": 53738, "coordinates": {"lon": -6.07352, "lat": 13.68427}}, {"name": "\u00d6lgii", "country": "MN", "population": 28400, "coordinates": {"lon": 89.9625, "lat": 48.96833}}, {"name": "Hamoud", "country": "MR", "population": 1547, "coordinates": {"lon": -11.51864, "lat": 15.64004}}, {"name": "Mangochi", "country": "MW", "population": 40236, "coordinates": {"lon": 35.26448, "lat": -14.47815}}, {"name": "Velizh", "country": "RU", "population": 8146, "coordinates": {"lon": 31.1986, "lat": 55.60448}}, {"name": "Usol\u2019ye", "country": "RU", "population": 276950, "coordinates": {"lon": 56.6862, "lat": 59.4219}}, {"name": "Dori", "country": "BF", "population": 46512, "coordinates": {"lon": -0.03261, "lat": 14.0341}},